[
  {
    "type": "Feature",
    "properties": {
      "type": "VOR/DME",
      "name1": "釧路",
      "name2": "KUSHIRO",
      "id": "TCE",
      "ch": "47x",
      "freq": 111.0
    },
    "geometry": {
      "type": "Point",
      "coordinates": [
        144.200772,
        43.036050
      ]
    }
  },
  {
    "type": "Feature",
    "properties": {
      "type": "TACAN",
      "name1": "舞鶴",
      "name2": "MAIZURU",
      "id": "MZT",
      "ch": "33y",
      "freq": null
    },
    "geometry": {
      "type": "Point",
      "coordinates": [
        135.431111,
        35.548056
      ]
    }
  },
  {
    "type": "Feature",
    "properties": {
      "type": "VOR/DME",
      "name1": "松本",
      "name2": "MATSUMOTO",
      "id": "MBE",
      "ch": "123x",
      "freq": 117.6
    },
    "geometry": {
      "type": "Point",
      "coordinates": [
        137.919817,
        36.155975
      ]
    }
  },
  {
    "type": "Feature",
    "properties": {
      "type": "VOR/DME",
      "name1": "松山",
      "name2": "MATSUYAMA",
      "id": "MYE",
      "ch": "43y",
      "freq": 110.65
    },
    "geometry": {
      "type": "Point",
      "coordinates": [
        132.692222,
        33.830103
      ]
    }
  },
  {
    "type": "Feature",
    "properties": {
      "type": "VOR/DME",
      "name1": "女満別",
      "name2": "MEMANBETSU",
      "id": "TBE",
      "ch": "45y",
      "freq": 110.85
    },
    "geometry": {
      "type": "Point",
      "coordinates": [
        144.166183,
        43.884908
      ]
    }
  },
  {
    "type": "Feature",
    "properties": {
      "type": "TACAN",
      "name1": "美保",
      "name2": "MIHO",
      "id": "JET",
      "ch": "114x",
      "freq": null
    },
    "geometry": {
      "type": "Point",
      "coordinates": [
        133.099644,
        35.531047
      ]
    }
  },
  {
    "type": "Feature",
    "properties": {
      "type": "VOR/DME",
      "name1": "南大東",
      "name2": "MINAMIDAITO",
      "id": "MDE",
      "ch": "125x",
      "freq": 117.8
    },
    "geometry": {
      "type": "Point",
      "coordinates": [
        131.263789,
        25.854483
      ]
    }
  },
  {
    "type": "Feature",
    "properties": {
      "type": "TACAN",
      "name1": "南鳥島",
      "name2": "MINAMITORISHIMA",
      "id": "MLT",
      "ch": "23x",
      "freq": null
    },
    "geometry": {
      "type": "Point",
      "coordinates": [
        153.977500,
        24.289444
      ]
    }
  },
  {
    "type": "Feature",
    "properties": {
      "type": "VOR/DME",
      "name1": "三沢",
      "name2": "MISAWA",
      "id": "MIS",
      "ch": null,
      "freq": 115.4
    },
    "geometry": {
      "type": "Point",
      "coordinates": [
        141.381108,
        40.703822
      ]
    }
  },
  {
    "type": "Feature",
    "properties": {
      "type": "TACAN",
      "name1": "三沢",
      "name2": "MISAWA",
      "id": "MIS",
      "ch": "101x",
      "freq": null
    },
    "geometry": {
      "type": "Point",
      "coordinates": [
        141.381108,
        40.703822
      ]
    }
  }
] 