[
  {
    "type": "Feature",
    "properties": {
      "type": "VOR/DME",
      "name1": "宇部",
      "name2": "UBE",
      "id": "UBE",
      "ch": "45x",
      "freq": 110.8
    },
    "geometry": {
      "type": "Point",
      "coordinates": [
        131.283531,
        33.935628
      ]
    }
  },
  {
    "type": "Feature",
    "properties": {
      "type": "TACAN",
      "name1": "宇都宮",
      "name2": "UTSUNOMIYA",
      "id": "JDT",
      "ch": "58y",
      "freq": null
    },
    "geometry": {
      "type": "Point",
      "coordinates": [
        139.875531,
        36.516839
      ]
    }
  },
  {
    "type": "Feature",
    "properties": {
      "type": "VOR/DME",
      "name1": "稚内",
      "name2": "WAKKANAI",
      "id": "WKE",
      "ch": "100x",
      "freq": 115.3
    },
    "geometry": {
      "type": "Point",
      "coordinates": [
        141.805647,
        45.412914
      ]
    }
  },
  {
    "type": "Feature",
    "properties": {
      "type": "VOR/DME",
      "name1": "山形",
      "name2": "YAMAGATA",
      "id": "YTE",
      "ch": "77x",
      "freq": 113.0
    },
    "geometry": {
      "type": "Point",
      "coordinates": [
        140.357953,
        38.388622
      ]
    }
  },
  {
    "type": "Feature",
    "properties": {
      "type": "VOR/DME",
      "name1": "八尾",
      "name2": "YAO",
      "id": "YOE",
      "ch": "93x",
      "freq": 114.6
    },
    "geometry": {
      "type": "Point",
      "coordinates": [
        135.593706,
        34.598458
      ]
    }
  },
  {
    "type": "Feature",
    "properties": {
      "type": "VOR/DME",
      "name1": "米子",
      "name2": "YONAGO",
      "id": "YGE",
      "ch": "120x",
      "freq": 117.3
    },
    "geometry": {
      "type": "Point",
      "coordinates": [
        133.262761,
        35.501378
      ]
    }
  },
  {
    "type": "Feature",
    "properties": {
      "type": "VOR/DME",
      "name1": "与那国",
      "name2": "YONAGUNI",
      "id": "YNE",
      "ch": "97y",
      "freq": 115.05
    },
    "geometry": {
      "type": "Point",
      "coordinates": [
        122.997739,
        24.464922
      ]
    }
  },
  {
    "type": "Feature",
    "properties": {
      "type": "VOR/DME",
      "name1": "雄和",
      "name2": "YUWA",
      "id": "UWE",
      "ch": "43y",
      "freq": 110.65
    },
    "geometry": {
      "type": "Point",
      "coordinates": [
        140.186936,
        39.617128
      ]
    }
  }
] 