{
  "type": "FeatureCollection",
  "crs": {
    "type": "name",
    "properties": {
      "name": "urn:ogc:def:crs:OGC:1.3:CRS84"
    }
  },
  "region": "中部",
  "features": [
    {
      "type": "Feature",
      "properties": {
        "id": "ABENO",
        "type": "Non-Compulsory",
        "name1": "アベノ"
      },
      "geometry": {
        "type": "Point",
        "coordinates": [
          135.6989,
          34.5922
        ]
      }
    },
    {
      "type": "Feature",
      "properties": {
        "id": "ADGUN",
        "type": "Non-Compulsory",
        "name1": "アドガン"
      },
      "geometry": {
        "type": "Point",
        "coordinates": [
          136.0214,
          35.0625
        ]
      }
    },
    {
      "type": "Feature",
      "properties": {
        "id": "AGPUK",
        "type": "Non-Compulsory",
        "name1": "アグパック"
      },
      "geometry": {
        "type": "Point",
        "coordinates": [
          136.0808,
          34.4856
        ]
      }
    },
    {
      "type": "Feature",
      "properties": {
        "id": "AKAPU",
        "type": "Non-Compulsory",
        "name1": "アカプ"
      },
      "geometry": {
        "type": "Point",
        "coordinates": [
          136.7153,
          34.5322
        ]
      }
    },
    {
      "type": "Feature",
      "properties": {
        "id": "AKASI",
        "type": "Non-Compulsory",
        "name1": "アカシ"
      },
      "geometry": {
        "type": "Point",
        "coordinates": [
          135,
          34.5897
        ]
      }
    },
    {
      "type": "Feature",
      "properties": {
        "id": "ALVIS",
        "type": "Non-Compulsory",
        "name1": "アルヴィス"
      },
      "geometry": {
        "type": "Point",
        "coordinates": [
          135.0258,
          34.2806
        ]
      }
    },
    {
      "type": "Feature",
      "properties": {
        "id": "AMAGO",
        "type": "Non-Compulsory",
        "name1": "アマゴ"
      },
      "geometry": {
        "type": "Point",
        "coordinates": [
          136.2953,
          36.3306
        ]
      }
    },
    {
      "type": "Feature",
      "properties": {
        "id": "AMBER",
        "type": "Non-Compulsory",
        "name1": "アンバー"
      },
      "geometry": {
        "type": "Point",
        "coordinates": [
          135.3453,
          34.495
        ]
      }
    },
    {
      "type": "Feature",
      "properties": {
        "id": "AMEZY",
        "type": "Non-Compulsory",
        "name1": "アメジー"
      },
      "geometry": {
        "type": "Point",
        "coordinates": [
          135.3142,
          34.4742
        ]
      }
    },
    {
      "type": "Feature",
      "properties": {
        "id": "ANJYO",
        "type": "Non-Compulsory",
        "name1": "アンジョー"
      },
      "geometry": {
        "type": "Point",
        "coordinates": [
          137.1025,
          34.9997
        ]
      }
    },
    {
      "type": "Feature",
      "properties": {
        "id": "ANROX",
        "type": "Non-Compulsory",
        "name1": "アンロックス"
      },
      "geometry": {
        "type": "Point",
        "coordinates": [
          136.9603,
          34.655
        ]
      }
    },
    {
      "type": "Feature",
      "properties": {
        "id": "ARIMA",
        "type": "Non-Compulsory",
        "name1": "アリマ"
      },
      "geometry": {
        "type": "Point",
        "coordinates": [
          135.1058,
          34.7564
        ]
      }
    },
    {
      "type": "Feature",
      "properties": {
        "id": "ASUKA",
        "type": "Non-Compulsory",
        "name1": "アスカ"
      },
      "geometry": {
        "type": "Point",
        "coordinates": [
          135.7611,
          34.7675
        ]
      }
    },
    {
      "type": "Feature",
      "properties": {
        "id": "AWARA",
        "type": "Non-Compulsory",
        "name1": "アワラ"
      },
      "geometry": {
        "type": "Point",
        "coordinates": [
          136.0964,
          36.2997
        ]
      }
    },
    {
      "type": "Feature",
      "properties": {
        "id": "AYANO",
        "type": "Non-Compulsory",
        "name1": "アヤノ"
      },
      "geometry": {
        "type": "Point",
        "coordinates": [
          136.3936,
          34.0961
        ]
      }
    },
    {
      "type": "Feature",
      "properties": {
        "id": "AZUMI",
        "type": "Non-Compulsory",
        "name1": "アズミ"
      },
      "geometry": {
        "type": "Point",
        "coordinates": [
          137.9092,
          36.4806
        ]
      }
    },
    {
      "type": "Feature",
      "properties": {
        "id": "BEBIL",
        "type": "Non-Compulsory",
        "name1": "ベビル"
      },
      "geometry": {
        "type": "Point",
        "coordinates": [
          135.3144,
          34.5011
        ]
      }
    },
    {
      "type": "Feature",
      "properties": {
        "id": "BEIGE",
        "type": "Non-Compulsory",
        "name1": "ベージュ"
      },
      "geometry": {
        "type": "Point",
        "coordinates": [
          135.3631,
          34.5339
        ]
      }
    },
    {
      "type": "Feature",
      "properties": {
        "id": "BITEP",
        "type": "Non-Compulsory",
        "name1": "ビテップ"
      },
      "geometry": {
        "type": "Point",
        "coordinates": [
          136.9636,
          34.5633
        ]
      }
    },
    {
      "type": "Feature",
      "properties": {
        "id": "BIWWA",
        "type": "Non-Compulsory",
        "name1": "ビワ"
      },
      "geometry": {
        "type": "Point",
        "coordinates": [
          136.2561,
          35.1161
        ]
      }
    },
    {
      "type": "Feature",
      "properties": {
        "id": "BOLAL",
        "type": "Non-Compulsory",
        "name1": "ボラル"
      },
      "geometry": {
        "type": "Point",
        "coordinates": [
          135.0189,
          34.3025
        ]
      }
    },
    {
      "type": "Feature",
      "properties": {
        "id": "BRASS",
        "type": "Non-Compulsory",
        "name1": "ブラス"
      },
      "geometry": {
        "type": "Point",
        "coordinates": [
          135.3753,
          34.5419
        ]
      }
    },
    {
      "type": "Feature",
      "properties": {
        "id": "BUMER",
        "type": "Non-Compulsory",
        "name1": "ブーマー"
      },
      "geometry": {
        "type": "Point",
        "coordinates": [
          135.1058,
          34.7564
        ]
      }
    },
    {
      "type": "Feature",
      "properties": {
        "id": "CARDS",
        "type": "Non-Compulsory",
        "name1": "カーズ"
      },
      "geometry": {
        "type": "Point",
        "coordinates": [
          136.4008,
          34.4189
        ]
      }
    },
    {
      "type": "Feature",
      "properties": {
        "id": "CHESS",
        "type": "Non-Compulsory",
        "name1": "チェス"
      },
      "geometry": {
        "type": "Point",
        "coordinates": [
          136.485,
          35.3425
        ]
      }
    },
    {
      "type": "Feature",
      "properties": {
        "id": "CHUBU",
        "type": "Non-Compulsory",
        "name1": "チュウブ"
      },
      "geometry": {
        "type": "Point",
        "coordinates": [
          136.8031,
          34.8581
        ]
      }
    },
    {
      "type": "Feature",
      "properties": {
        "id": "DAIJO",
        "type": "Non-Compulsory",
        "name1": "ダイジョー"
      },
      "geometry": {
        "type": "Point",
        "coordinates": [
          136.2089,
          36.2817
        ]
      }
    },
    {
      "type": "Feature",
      "properties": {
        "id": "DAIOH",
        "type": "Non-Compulsory",
        "name1": "ダイオー"
      },
      "geometry": {
        "type": "Point",
        "coordinates": [
          137.3936,
          34.2631
        ]
      }
    },
    {
      "type": "Feature",
      "properties": {
        "id": "DANON",
        "type": "Non-Compulsory",
        "name1": "ダノン"
      },
      "geometry": {
        "type": "Point",
        "coordinates": [
          137.9458,
          35.5717
        ]
      }
    },
    {
      "type": "Feature",
      "properties": {
        "id": "DOLLY",
        "type": "Non-Compulsory",
        "name1": "ドリー"
      },
      "geometry": {
        "type": "Point",
        "coordinates": [
          136.8339,
          34.7439
        ]
      }
    },
    {
      "type": "Feature",
      "properties": {
        "id": "EBUSI",
        "type": "Non-Compulsory",
        "name1": "エブシ"
      },
      "geometry": {
        "type": "Point",
        "coordinates": [
          137.2153,
          36.7394
        ]
      }
    },
    {
      "type": "Feature",
      "properties": {
        "id": "EGOGO",
        "type": "Non-Compulsory",
        "name1": "エゴゴ"
      },
      "geometry": {
        "type": "Point",
        "coordinates": [
          136.2369,
          34.4956
        ]
      }
    },
    {
      "type": "Feature",
      "properties": {
        "id": "EMITT",
        "type": "Non-Compulsory",
        "name1": "エミット"
      },
      "geometry": {
        "type": "Point",
        "coordinates": [
          135.0858,
          35.4192
        ]
      }
    },
    {
      "type": "Feature",
      "properties": {
        "id": "ESPAN",
        "type": "Non-Compulsory",
        "name1": "エスパン"
      },
      "geometry": {
        "type": "Point",
        "coordinates": [
          136.5858,
          34.1872
        ]
      }
    },
    {
      "type": "Feature",
      "properties": {
        "id": "EXPOH",
        "type": "Non-Compulsory",
        "name1": "エキスポー"
      },
      "geometry": {
        "type": "Point",
        "coordinates": [
          137.02,
          35.1053
        ]
      }
    },
    {
      "type": "Feature",
      "properties": {
        "id": "FENDI",
        "type": "Non-Compulsory",
        "name1": "フェンディ"
      },
      "geometry": {
        "type": "Point",
        "coordinates": [
          136.7847,
          34.9442
        ]
      }
    },
    {
      "type": "Feature",
      "properties": {
        "id": "FKASI",
        "type": "Non-Compulsory",
        "name1": "フカシ"
      },
      "geometry": {
        "type": "Point",
        "coordinates": [
          137.915,
          36.2714
        ]
      }
    },
    {
      "type": "Feature",
      "properties": {
        "id": "FTAMI",
        "type": "Non-Compulsory",
        "name1": "フタミ"
      },
      "geometry": {
        "type": "Point",
        "coordinates": [
          136.7086,
          34.5678
        ]
      }
    },
    {
      "type": "Feature",
      "properties": {
        "id": "GAKTO",
        "type": "Non-Compulsory",
        "name1": "ガクト"
      },
      "geometry": {
        "type": "Point",
        "coordinates": [
          137.9117,
          36.3561
        ]
      }
    },
    {
      "type": "Feature",
      "properties": {
        "id": "GANDO",
        "type": "Non-Compulsory",
        "name1": "ガンド"
      },
      "geometry": {
        "type": "Point",
        "coordinates": [
          137.2386,
          36.7261
        ]
      }
    },
    {
      "type": "Feature",
      "properties": {
        "id": "GOHEI",
        "type": "Non-Compulsory",
        "name1": "ゴヘイ"
      },
      "geometry": {
        "type": "Point",
        "coordinates": [
          137.3578,
          36.1978
        ]
      }
    },
    {
      "type": "Feature",
      "properties": {
        "id": "GOLIA",
        "type": "Non-Compulsory",
        "name1": "ゴライア"
      },
      "geometry": {
        "type": "Point",
        "coordinates": [
          135.0028,
          34.2756
        ]
      }
    },
    {
      "type": "Feature",
      "properties": {
        "id": "GORYU",
        "type": "Non-Compulsory",
        "name1": "ゴリュウ"
      },
      "geometry": {
        "type": "Point",
        "coordinates": [
          137.7694,
          37.1986
        ]
      }
    },
    {
      "type": "Feature",
      "properties": {
        "id": "GOZEN",
        "type": "Non-Compulsory",
        "name1": "ゴゼン"
      },
      "geometry": {
        "type": "Point",
        "coordinates": [
          136.1992,
          36.4181
        ]
      }
    },
    {
      "type": "Feature",
      "properties": {
        "id": "HACHI",
        "type": "Non-Compulsory",
        "name1": "ハチ"
      },
      "geometry": {
        "type": "Point",
        "coordinates": [
          136.6825,
          35.7844
        ]
      }
    },
    {
      "type": "Feature",
      "properties": {
        "id": "HAKBA",
        "type": "Non-Compulsory",
        "name1": "ハクバ"
      },
      "geometry": {
        "type": "Point",
        "coordinates": [
          137.8847,
          37.26
        ]
      }
    },
    {
      "type": "Feature",
      "properties": {
        "id": "HALKI",
        "type": "Non-Compulsory",
        "name1": "ハルキ"
      },
      "geometry": {
        "type": "Point",
        "coordinates": [
          137.0403,
          37.3231
        ]
      }
    },
    {
      "type": "Feature",
      "properties": {
        "id": "HAMNA",
        "type": "Non-Compulsory",
        "name1": "ハムナ"
      },
      "geometry": {
        "type": "Point",
        "coordinates": [
          137.9461,
          34.5603
        ]
      }
    },
    {
      "type": "Feature",
      "properties": {
        "id": "HAPPO",
        "type": "Non-Compulsory",
        "name1": "ハッポー"
      },
      "geometry": {
        "type": "Point",
        "coordinates": [
          137.8892,
          37.1014
        ]
      }
    },
    {
      "type": "Feature",
      "properties": {
        "id": "HARKY",
        "type": "Non-Compulsory",
        "name1": "ハーキー"
      },
      "geometry": {
        "type": "Point",
        "coordinates": [
          135.2967,
          34.4894
        ]
      }
    },
    {
      "type": "Feature",
      "properties": {
        "id": "HATCH",
        "type": "Non-Compulsory",
        "name1": "ハッチ"
      },
      "geometry": {
        "type": "Point",
        "coordinates": [
          135.0467,
          34.3453
        ]
      }
    },
    {
      "type": "Feature",
      "properties": {
        "id": "HERAI",
        "type": "Non-Compulsory",
        "name1": "ヘライ"
      },
      "geometry": {
        "type": "Point",
        "coordinates": [
          136.3289,
          36.3394
        ]
      }
    },
    {
      "type": "Feature",
      "properties": {
        "id": "HIKNE",
        "type": "Non-Compulsory",
        "name1": "ヒコネ"
      },
      "geometry": {
        "type": "Point",
        "coordinates": [
          136.1769,
          35.2375
        ]
      }
    },
    {
      "type": "Feature",
      "properties": {
        "id": "HISAI",
        "type": "Non-Compulsory",
        "name1": "ヒサイ"
      },
      "geometry": {
        "type": "Point",
        "coordinates": [
          136.4992,
          34.6642
        ]
      }
    },
    {
      "type": "Feature",
      "properties": {
        "id": "HOSTA",
        "type": "Non-Compulsory",
        "name1": "ホスタ"
      },
      "geometry": {
        "type": "Point",
        "coordinates": [
          135.1331,
          34.3883
        ]
      }
    },
    {
      "type": "Feature",
      "properties": {
        "id": "HOUBA",
        "type": "Non-Compulsory",
        "name1": "ホウバ"
      },
      "geometry": {
        "type": "Point",
        "coordinates": [
          137.2303,
          35.7892
        ]
      }
    },
    {
      "type": "Feature",
      "properties": {
        "id": "IBUKI",
        "type": "Non-Compulsory",
        "name1": "イブキ"
      },
      "geometry": {
        "type": "Point",
        "coordinates": [
          136.7628,
          35.5864
        ]
      }
    },
    {
      "type": "Feature",
      "properties": {
        "id": "IGDAT",
        "type": "Non-Compulsory",
        "name1": "イグダット"
      },
      "geometry": {
        "type": "Point",
        "coordinates": [
          136.8258,
          34.5108
        ]
      }
    },
    {
      "type": "Feature",
      "properties": {
        "id": "IKOMA",
        "type": "Non-Compulsory",
        "name1": "イコマ"
      },
      "geometry": {
        "type": "Point",
        "coordinates": [
          135.6539,
          34.6047
        ]
      }
    },
    {
      "type": "Feature",
      "properties": {
        "id": "IKUJI",
        "type": "Non-Compulsory",
        "name1": "イクジ"
      },
      "geometry": {
        "type": "Point",
        "coordinates": [
          137.4925,
          37.0383
        ]
      }
    },
    {
      "type": "Feature",
      "properties": {
        "id": "IMIZU",
        "type": "Non-Compulsory",
        "name1": "イミズ"
      },
      "geometry": {
        "type": "Point",
        "coordinates": [
          136.9906,
          36.7394
        ]
      }
    },
    {
      "type": "Feature",
      "properties": {
        "id": "IWATA",
        "type": "Non-Compulsory",
        "name1": "イワタ"
      },
      "geometry": {
        "type": "Point",
        "coordinates": [
          137.9711,
          34.7764
        ]
      }
    },
    {
      "type": "Feature",
      "properties": {
        "id": "IYOKA",
        "type": "Non-Compulsory",
        "name1": "イヨカ"
      },
      "geometry": {
        "type": "Point",
        "coordinates": [
          135.4294,
          34.3717
        ]
      }
    },
    {
      "type": "Feature",
      "properties": {
        "id": "IZUMI",
        "type": "Non-Compulsory",
        "name1": "イズミ"
      },
      "geometry": {
        "type": "Point",
        "coordinates": [
          135.4253,
          34.4414
        ]
      }
    },
    {
      "type": "Feature",
      "properties": {
        "id": "KOMATSU",
        "type": "Compulsory",
        "name1": "コマツ"
      },
      "geometry": {
        "type": "Point",
        "coordinates": [
          136.4042,
          36.3964
        ]
      }
    },
    {
      "type": "Feature",
      "properties": {
        "id": "KAINA",
        "type": "Non-Compulsory",
        "name1": "カイナ"
      },
      "geometry": {
        "type": "Point",
        "coordinates": [
          135.2431,
          34.2186
        ]
      }
    },
    {
      "type": "Feature",
      "properties": {
        "id": "KAMEO",
        "type": "Non-Compulsory",
        "name1": "カメオ"
      },
      "geometry": {
        "type": "Point",
        "coordinates": [
          135.4678,
          34.9508
        ]
      }
    },
    {
      "type": "Feature",
      "properties": {
        "id": "KAMOG",
        "type": "Non-Compulsory",
        "name1": "カモグ"
      },
      "geometry": {
        "type": "Point",
        "coordinates": [
          135.1239,
          34.7742
        ]
      }
    },
    {
      "type": "Feature",
      "properties": {
        "id": "KANII",
        "type": "Non-Compulsory",
        "name1": "カニ"
      },
      "geometry": {
        "type": "Point",
        "coordinates": [
          137.0628,
          35.4
        ]
      }
    },
    {
      "type": "Feature",
      "properties": {
        "id": "KILCO",
        "type": "Non-Compulsory",
        "name1": "キルコ"
      },
      "geometry": {
        "type": "Point",
        "coordinates": [
          137.4222,
          37.1453
        ]
      }
    },
    {
      "type": "Feature",
      "properties": {
        "id": "KONAN",
        "type": "Non-Compulsory",
        "name1": "コナン"
      },
      "geometry": {
        "type": "Point",
        "coordinates": [
          137.0022,
          34.5936
        ]
      }
    },
    {
      "type": "Feature",
      "properties": {
        "id": "KOSAI",
        "type": "Non-Compulsory",
        "name1": "コサイ"
      },
      "geometry": {
        "type": "Point",
        "coordinates": [
          137.4686,
          34.7689
        ]
      }
    },
    {
      "type": "Feature",
      "properties": {
        "id": "KOSEI",
        "type": "Non-Compulsory",
        "name1": "コセイ"
      },
      "geometry": {
        "type": "Point",
        "coordinates": [
          135.955,
          35.2903
        ]
      }
    },
    {
      "type": "Feature",
      "properties": {
        "id": "KROBE",
        "type": "Non-Compulsory",
        "name1": "クロベ"
      },
      "geometry": {
        "type": "Point",
        "coordinates": [
          137.6978,
          36.5536
        ]
      }
    },
    {
      "type": "Feature",
      "properties": {
        "id": "KYUHO",
        "type": "Non-Compulsory",
        "name1": "キュウホー"
      },
      "geometry": {
        "type": "Point",
        "coordinates": [
          135.5592,
          34.6811
        ]
      }
    },
    {
      "type": "Feature",
      "properties": {
        "id": "LAGNA",
        "type": "Non-Compulsory",
        "name1": "ラグナ"
      },
      "geometry": {
        "type": "Point",
        "coordinates": [
          137.1608,
          34.8428
        ]
      }
    },
    {
      "type": "Feature",
      "properties": {
        "id": "LILPI",
        "type": "Non-Compulsory",
        "name1": "リルピ"
      },
      "geometry": {
        "type": "Point",
        "coordinates": [
          136.0206,
          34.4817
        ]
      }
    },
    {
      "type": "Feature",
      "properties": {
        "id": "MIYAZU",
        "type": "Compulsory",
        "name1": "ミヤヅ"
      },
      "geometry": {
        "type": "Point",
        "coordinates": [
          135.1369,
          35.4806
        ]
      }
    },
    {
      "type": "Feature",
      "properties": {
        "id": "MAIDO",
        "type": "Non-Compulsory",
        "name1": "マイド"
      },
      "geometry": {
        "type": "Point",
        "coordinates": [
          135.6106,
          34.8314
        ]
      }
    },
    {
      "type": "Feature",
      "properties": {
        "id": "MALUS",
        "type": "Non-Compulsory",
        "name1": "マルス"
      },
      "geometry": {
        "type": "Point",
        "coordinates": [
          136.7681,
          35.0133
        ]
      }
    },
    {
      "type": "Feature",
      "properties": {
        "id": "MAMLA",
        "type": "Non-Compulsory",
        "name1": "マムラ"
      },
      "geometry": {
        "type": "Point",
        "coordinates": [
          137.4069,
          35.5631
        ]
      }
    },
    {
      "type": "Feature",
      "properties": {
        "id": "MAPLE",
        "type": "Non-Compulsory",
        "name1": "メイプル"
      },
      "geometry": {
        "type": "Point",
        "coordinates": [
          137.5297,
          35.7056
        ]
      }
    },
    {
      "type": "Feature",
      "properties": {
        "id": "MARIA",
        "type": "Non-Compulsory",
        "name1": "マリア"
      },
      "geometry": {
        "type": "Point",
        "coordinates": [
          136.2653,
          35.6706
        ]
      }
    },
    {
      "type": "Feature",
      "properties": {
        "id": "MARIN",
        "type": "Non-Compulsory",
        "name1": "マリン"
      },
      "geometry": {
        "type": "Point",
        "coordinates": [
          135.0308,
          34.6175
        ]
      }
    },
    {
      "type": "Feature",
      "properties": {
        "id": "MATSUMOTO",
        "type": "Non-Compulsory",
        "name1": "マツモト"
      },
      "geometry": {
        "type": "Point",
        "coordinates": [
          137.9197,
          36.1561
        ]
      }
    },
    {
      "type": "Feature",
      "properties": {
        "id": "MEDIC",
        "type": "Non-Compulsory",
        "name1": "メディック"
      },
      "geometry": {
        "type": "Point",
        "coordinates": [
          137.2464,
          36.8364
        ]
      }
    },
    {
      "type": "Feature",
      "properties": {
        "id": "MEIHO",
        "type": "Non-Compulsory",
        "name1": "メイホー"
      },
      "geometry": {
        "type": "Point",
        "coordinates": [
          136.8033,
          35.6033
        ]
      }
    },
    {
      "type": "Feature",
      "properties": {
        "id": "MODEL",
        "type": "Non-Compulsory",
        "name1": "モデル"
      },
      "geometry": {
        "type": "Point",
        "coordinates": [
          137.4406,
          34.6969
        ]
      }
    },
    {
      "type": "Feature",
      "properties": {
        "id": "MORIZ",
        "type": "Non-Compulsory",
        "name1": "モリッツ"
      },
      "geometry": {
        "type": "Point",
        "coordinates": [
          137.2231,
          35.0567
        ]
      }
    },
    {
      "type": "Feature",
      "properties": {
        "id": "MUGEN",
        "type": "Non-Compulsory",
        "name1": "ムゲン"
      },
      "geometry": {
        "type": "Point",
        "coordinates": [
          137.9633,
          35.4064
        ]
      }
    },
    {
      "type": "Feature",
      "properties": {
        "id": "NAGOYA",
        "type": "Compulsory",
        "name1": "ナゴヤ"
      },
      "geometry": {
        "type": "Point",
        "coordinates": [
          136.915,
          35.2653
        ]
      }
    },
    {
      "type": "Feature",
      "properties": {
        "id": "NANAO",
        "type": "Non-Compulsory",
        "name1": "ナナオ"
      },
      "geometry": {
        "type": "Point",
        "coordinates": [
          137.0481,
          37.0528
        ]
      }
    },
    {
      "type": "Feature",
      "properties": {
        "id": "NARAH",
        "type": "Non-Compulsory",
        "name1": "ナラ"
      },
      "geometry": {
        "type": "Point",
        "coordinates": [
          136.1158,
          34.4997
        ]
      }
    },
    {
      "type": "Feature",
      "properties": {
        "id": "NATCH",
        "type": "Non-Compulsory",
        "name1": "ナッチ"
      },
      "geometry": {
        "type": "Point",
        "coordinates": [
          136.1944,
          34.1925
        ]
      }
    },
    {
      "type": "Feature",
      "properties": {
        "id": "NATEN",
        "type": "Non-Compulsory",
        "name1": "ナテン"
      },
      "geometry": {
        "type": "Point",
        "coordinates": [
          135.5567,
          34.6847
        ]
      }
    },
    {
      "type": "Feature",
      "properties": {
        "id": "NIMOH",
        "type": "Non-Compulsory",
        "name1": "ニモー"
      },
      "geometry": {
        "type": "Point",
        "coordinates": [
          136.8558,
          34.6625
        ]
      }
    },
    {
      "type": "Feature",
      "properties": {
        "id": "NOBEL",
        "type": "Non-Compulsory",
        "name1": "ノーベル"
      },
      "geometry": {
        "type": "Point",
        "coordinates": [
          137.4222,
          37.1383
        ]
      }
    },
    {
      "type": "Feature",
      "properties": {
        "id": "NONOC",
        "type": "Non-Compulsory",
        "name1": "ノノック"
      },
      "geometry": {
        "type": "Point",
        "coordinates": [
          137.0878,
          37.3364
        ]
      }
    },
    {
      "type": "Feature",
      "properties": {
        "id": "NURLI",
        "type": "Non-Compulsory",
        "name1": "ヌーリ"
      },
      "geometry": {
        "type": "Point",
        "coordinates": [
          136.9889,
          34.4347
        ]
      }
    },
    {
      "type": "Feature",
      "properties": {
        "id": "OGAKI",
        "type": "Non-Compulsory",
        "name1": "オガキ"
      },
      "geometry": {
        "type": "Point",
        "coordinates": [
          136.6269,
          35.3022
        ]
      }
    },
    {
      "type": "Feature",
      "properties": {
        "id": "OGILA",
        "type": "Non-Compulsory",
        "name1": "オギラ"
      },
      "geometry": {
        "type": "Point",
        "coordinates": [
          136.5564,
          34.6203
        ]
      }
    },
    {
      "type": "Feature",
      "properties": {
        "id": "OHANA",
        "type": "Non-Compulsory",
        "name1": "オハナ"
      },
      "geometry": {
        "type": "Point",
        "coordinates": [
          137.1011,
          37.4356
        ]
      }
    },
    {
      "type": "Feature",
      "properties": {
        "id": "OHNNO",
        "type": "Non-Compulsory",
        "name1": "オーノ"
      },
      "geometry": {
        "type": "Point",
        "coordinates": [
          136.6342,
          35.8911
        ]
      }
    },
    {
      "type": "Feature",
      "properties": {
        "id": "OKINI",
        "type": "Non-Compulsory",
        "name1": "オーキニ"
      },
      "geometry": {
        "type": "Point",
        "coordinates": [
          135.7553,
          34.8494
        ]
      }
    },
    {
      "type": "Feature",
      "properties": {
        "id": "OKUNI",
        "type": "Non-Compulsory",
        "name1": "オークニ"
      },
      "geometry": {
        "type": "Point",
        "coordinates": [
          137.6878,
          35.4036
        ]
      }
    },
    {
      "type": "Feature",
      "properties": {
        "id": "OLTOM",
        "type": "Non-Compulsory",
        "name1": "オルトム"
      },
      "geometry": {
        "type": "Point",
        "coordinates": [
          137.4617,
          35.0261
        ]
      }
    },
    {
      "type": "Feature",
      "properties": {
        "id": "ORVIL",
        "type": "Non-Compulsory",
        "name1": "オービル"
      },
      "geometry": {
        "type": "Point",
        "coordinates": [
          136.7611,
          35.0453
        ]
      }
    },
    {
      "type": "Feature",
      "properties": {
        "id": "OSAMU",
        "type": "Non-Compulsory",
        "name1": "オサム"
      },
      "geometry": {
        "type": "Point",
        "coordinates": [
          135.4333,
          34.305
        ]
      }
    },
    {
      "type": "Feature",
      "properties": {
        "id": "OWARI",
        "type": "Non-Compulsory",
        "name1": "オワリ"
      },
      "geometry": {
        "type": "Point",
        "coordinates": [
          136.9828,
          35.3517
        ]
      }
    },
    {
      "type": "Feature",
      "properties": {
        "id": "OYABE",
        "type": "Non-Compulsory",
        "name1": "オヤベ"
      },
      "geometry": {
        "type": "Point",
        "coordinates": [
          136.7536,
          36.605
        ]
      }
    },
    {
      "type": "Feature",
      "properties": {
        "id": "JANDY",
        "type": "Non-Compulsory",
        "name1": "ジャンディー"
      },
      "geometry": {
        "type": "Point",
        "coordinates": [
          135.0419,
          34.2914
        ]
      }
    },
    {
      "type": "Feature",
      "properties": {
        "id": "RAIKO",
        "type": "Non-Compulsory",
        "name1": "ライコ"
      },
      "geometry": {
        "type": "Point",
        "coordinates": [
          136.8592,
          35.3544
        ]
      }
    },
    {
      "type": "Feature",
      "properties": {
        "id": "RALPH",
        "type": "Non-Compulsory",
        "name1": "ラルフ"
      },
      "geometry": {
        "type": "Point",
        "coordinates": [
          136.7878,
          34.9314
        ]
      }
    },
    {
      "type": "Feature",
      "properties": {
        "id": "RIPSI",
        "type": "Non-Compulsory",
        "name1": "リプシ"
      },
      "geometry": {
        "type": "Point",
        "coordinates": [
          137.6925,
          35.8944
        ]
      }
    },
    {
      "type": "Feature",
      "properties": {
        "id": "RITTO",
        "type": "Non-Compulsory",
        "name1": "リットー"
      },
      "geometry": {
        "type": "Point",
        "coordinates": [
          136.4833,
          35.1672
        ]
      }
    },
    {
      "type": "Feature",
      "properties": {
        "id": "RYUDO",
        "type": "Non-Compulsory",
        "name1": "リュウドー"
      },
      "geometry": {
        "type": "Point",
        "coordinates": [
          137.0314,
          35.0403
        ]
      }
    }
  ]
}