{
  "type": "FeatureCollection",
  "crs": {
    "type": "name",
    "properties": {
      "name": "urn:ogc:def:crs:OGC:1.3:CRS84"
    }
  },
  "features": [
    {
      "type": "Feature",
      "properties": {
        "id": "ADGOR",
        "type": "Compulsory",
        "name1": "アドゴル"
      },
      "geometry": {
        "type": "Point",
        "coordinates": [ 149.6508, 40.4247 ]
      }
    },
    {
      "type": "Feature",
      "properties": {
        "id": "ADKAK",
        "type": "Compulsory",
        "name1": "アドカック"
      },
      "geometry": {
        "type": "Point",
        "coordinates": [ 142.1633, 33.9036 ]
      }
    },
    {
      "type": "Feature",
      "properties": {
        "id": "ADNAP",
        "type": "Compulsory",
        "name1": "アドナップ"
      },
      "geometry": {
        "type": "Point",
        "coordinates": [ 145.6664, 37.1975 ]
      }
    },
    {
      "type": "Feature",
      "properties": {
        "id": "AGEDI",
        "type": "Compulsory",
        "name1": "アゲディ"
      },
      "geometry": {
        "type": "Point",
        "coordinates": [ 140.6008, 36.4547 ]
      }
    },
    {
      "type": "Feature",
      "properties": {
        "id": "AKISU",
        "type": "Compulsory",
        "name1": "アキス"
      },
      "geometry": {
        "type": "Point",
        "coordinates": [ 161.3333, 47.5508 ]
      }
    },
    {
      "type": "Feature",
      "properties": {
        "id": "AKSUN",
        "type": "Compulsory",
        "name1": "アクスン"
      },
      "geometry": {
        "type": "Point",
        "coordinates": [ 140.9044, 45.7522 ]
      }
    },
    {
      "type": "Feature",
      "properties": {
        "id": "ANDOL",
        "type": "Compulsory",
        "name1": "アンドル"
      },
      "geometry": {
        "type": "Point",
        "coordinates": [ 133.0000, 37.6661 ]
      }
    },
    {
      "type": "Feature",
      "properties": {
        "id": "ANIMO",
        "type": "Compulsory",
        "name1": "アニモ"
      },
      "geometry": {
        "type": "Point",
        "coordinates": [ 143.6792, 45.1989 ]
      }
    },
    {
      "type": "Feature",
      "properties": {
        "id": "AOMORI",
        "type": "Compulsory",
        "name1": "アオモリ"
      },
      "geometry": {
        "type": "Point",
        "coordinates": [ 140.7053, 40.7389 ]
      }
    },
    {
      "type": "Feature",
      "properties": {
        "id": "APELA",
        "type": "Compulsory",
        "name1": "アペラ"
      },
      "geometry": {
        "type": "Point",
        "coordinates": [ 129.2333, 34.7231 ]
      }
    },
    {
      "type": "Feature",
      "properties": {
        "id": "ASEDA",
        "type": "Compulsory",
        "name1": "アセダ"
      },
      "geometry": {
        "type": "Point",
        "coordinates": [ 139.1589, 25.0044 ]
      }
    },
    {
      "type": "Feature",
      "properties": {
        "id": "ASTER",
        "type": "Compulsory",
        "name1": "アスター"
      },
      "geometry": {
        "type": "Point",
        "coordinates": [ 142.5331, 39.2311 ]
      }
    },
    {
      "type": "Feature",
      "properties": {
        "id": "ATIGO",
        "type": "Compulsory",
        "name1": "アティゴ"
      },
      "geometry": {
        "type": "Point",
        "coordinates": [ 150.3167, 21.0000 ]
      }
    },
    {
      "type": "Feature",
      "properties": {
        "id": "ATOTI",
        "type": "Compulsory",
        "name1": "アトッチ"
      },
      "geometry": {
        "type": "Point",
        "coordinates": [ 125.1983, 30.0036 ]
      }
    },
    {
      "type": "Feature",
      "properties": {
        "id": "AVBET",
        "type": "Compulsory",
        "name1": "アベット"
      },
      "geometry": {
        "type": "Point",
        "coordinates": [ 145.4667, 36.1422 ]
      }
    },
    {
      "type": "Feature",
      "properties": {
        "id": "AVGOK",
        "type": "Compulsory",
        "name1": "アブゴック"
      },
      "geometry": {
        "type": "Point",
        "coordinates": [ 138.2464, 43.6022 ]
      }
    },
    {
      "type": "Feature",
      "properties": {
        "id": "AVLAS",
        "type": "Compulsory",
        "name1": "アブラス"
      },
      "geometry": {
        "type": "Point",
        "coordinates": [ 130.1208, 24.3556 ]
      }
    },
    {
      "type": "Feature",
      "properties": {
        "id": "BEEBO",
        "type": "Compulsory",
        "name1": "ビーボ"
      },
      "geometry": {
        "type": "Point",
        "coordinates": [ 153.1906, 22.4078 ]
      }
    },
    {
      "type": "Feature",
      "properties": {
        "id": "BISIG",
        "type": "Compulsory",
        "name1": "ビシック"
      },
      "geometry": {
        "type": "Point",
        "coordinates": [ 125.2667, 21.0000 ]
      }
    },
    {
      "type": "Feature",
      "properties": {
        "id": "BISIV",
        "type": "Compulsory",
        "name1": "ビシブ"
      },
      "geometry": {
        "type": "Point",
        "coordinates": [ 144.2828, 44.9919 ]
      }
    },
    {
      "type": "Feature",
      "properties": {
        "id": "BIXAK",
        "type": "Compulsory",
        "name1": "ビクサック"
      },
      "geometry": {
        "type": "Point",
        "coordinates": [ 133.1375, 27.8806 ]
      }
    },
    {
      "type": "Feature",
      "properties": {
        "id": "BOMAP",
        "type": "Compulsory",
        "name1": "ボーマップ"
      },
      "geometry": {
        "type": "Point",
        "coordinates": [ 129.8244, 30.0036 ]
      }
    },
    {
      "type": "Feature",
      "properties": {
        "id": "BORDO",
        "type": "Compulsory",
        "name1": "ボルド"
      },
      "geometry": {
        "type": "Point",
        "coordinates": [ 124.0000, 26.0167 ]
      }
    },
    {
      "type": "Feature",
      "properties": {
        "id": "BUBDO",
        "type": "Compulsory",
        "name1": "ブブド"
      },
      "geometry": {
        "type": "Point",
        "coordinates": [ 136.6539, 31.4319 ]
      }
    },
    {
      "type": "Feature",
      "properties": {
        "id": "BULAN",
        "type": "Compulsory",
        "name1": "ブラン"
      },
      "geometry": {
        "type": "Point",
        "coordinates": [ 124.0000, 27.0917 ]
      }
    },
    {
      "type": "Feature",
      "properties": {
        "id": "CANAI",
        "type": "Compulsory",
        "name1": "カナイ"
      },
      "geometry": {
        "type": "Point",
        "coordinates": [ 134.0408, 26.7336 ]
      }
    },
    {
      "type": "Feature",
      "properties": {
        "id": "CHITOSE",
        "type": "Compulsory",
        "name1": "チトセ"
      },
      "geometry": {
        "type": "Point",
        "coordinates": [ 141.6861, 42.7000 ]
      }
    },
    {
      "type": "Feature",
      "properties": {
        "id": "CUTEE",
        "type": "Compulsory",
        "name1": "カッティ"
      },
      "geometry": {
        "type": "Point",
        "coordinates": [ 162.3100, 46.4150 ]
      }
    },
    {
      "type": "Feature",
      "properties": {
        "id": "DAGDA",
        "type": "Compulsory",
        "name1": "ダグダ"
      },
      "geometry": {
        "type": "Point",
        "coordinates": [ 142.3478, 33.8161 ]
      }
    },
    {
      "type": "Feature",
      "properties": {
        "id": "DEMPA",
        "type": "Compulsory",
        "name1": "デンパ"
      },
      "geometry": {
        "type": "Point",
        "coordinates": [ 135.3311, 31.7250 ]
      }
    },
    {
      "type": "Feature",
      "properties": {
        "id": "DOVAG",
        "type": "Compulsory",
        "name1": "ドバック"
      },
      "geometry": {
        "type": "Point",
        "coordinates": [ 133.8142, 28.5839 ]
      }
    },
    {
      "type": "Feature",
      "properties": {
        "id": "EMRON",
        "type": "Compulsory",
        "name1": "エムロン"
      },
      "geometry": {
        "type": "Point",
        "coordinates": [ 150.0000, 38.1061 ]
      }
    },
    {
      "type": "Feature",
      "properties": {
        "id": "ERABU",
        "type": "Compulsory",
        "name1": "エラブ"
      },
      "geometry": {
        "type": "Point",
        "coordinates": [ 128.6989, 27.4328 ]
      }
    },
    {
      "type": "Feature",
      "properties": {
        "id": "FUKUOKA",
        "type": "Compulsory",
        "name1": "フクオカ"
      },
      "geometry": {
        "type": "Point",
        "coordinates": [ 130.3897, 33.6761 ]
      }
    },
    {
      "type": "Feature",
      "properties": {
        "id": "GURAG",
        "type": "Compulsory",
        "name1": "グラグ"
      },
      "geometry": {
        "type": "Point",
        "coordinates": [ 127.4167, 21.0000 ]
      }
    },
    {
      "type": "Feature",
      "properties": {
        "id": "GURAR",
        "type": "Compulsory",
        "name1": "グーラー"
      },
      "geometry": {
        "type": "Point",
        "coordinates": [ 134.2272, 30.9864 ]
      }
    },
    {
      "type": "Feature",
      "properties": {
        "id": "HACHIJOJIMA",
        "type": "Compulsory",
        "name1": "ハチジョウジマ"
      },
      "geometry": {
        "type": "Point",
        "coordinates": [ 139.7886, 33.1144 ]
      }
    },
    {
      "type": "Feature",
      "properties": {
        "id": "HAKODATE",
        "type": "Compulsory",
        "name1": "ハコダテ"
      },
      "geometry": {
        "type": "Point",
        "coordinates": [ 140.8322, 41.7742 ]
      }
    },
    {
      "type": "Feature",
      "properties": {
        "id": "HANAMAKI",
        "type": "Compulsory",
        "name1": "ハナマキ"
      },
      "geometry": {
        "type": "Point",
        "coordinates": [ 141.1336, 39.4333 ]
      }
    },
    {
      "type": "Feature",
      "properties": {
        "id": "HARKI",
        "type": "Compulsory",
        "name1": "ハーキィ"
      },
      "geometry": {
        "type": "Point",
        "coordinates": [ 159.6856, 49.3564 ]
      }
    },
    {
      "type": "Feature",
      "properties": {
        "id": "IGPAK",
        "type": "Compulsory",
        "name1": "イグパック"
      },
      "geometry": {
        "type": "Point",
        "coordinates": [ 153.3639, 45.8744 ]
      }
    },
    {
      "type": "Feature",
      "properties": {
        "id": "IGRAS",
        "type": "Compulsory",
        "name1": "イグラス"
      },
      "geometry": {
        "type": "Point",
        "coordinates": [ 132.7361, 37.3125 ]
      }
    },
    {
      "type": "Feature",
      "properties": {
        "id": "IGURU",
        "type": "Compulsory",
        "name1": "イグル"
      },
      "geometry": {
        "type": "Point",
        "coordinates": [ 124.0000, 23.9500 ]
      }
    },
    {
      "type": "Feature",
      "properties": {
        "id": "INVOK",
        "type": "Compulsory",
        "name1": "インボク"
      },
      "geometry": {
        "type": "Point",
        "coordinates": [ 129.3231, 34.7886 ]
      }
    },
    {
      "type": "Feature",
      "properties": {
        "id": "ISHIGAKIJIMA",
        "type": "Compulsory",
        "name1": "イシガキジマ"
      },
      "geometry": {
        "type": "Point",
        "coordinates": [ 124.2381, 24.3961 ]
      }
    },
    {
      "type": "Feature",
      "properties": {
        "id": "ISMAV",
        "type": "Compulsory",
        "name1": "イズマブ"
      },
      "geometry": {
        "type": "Point",
        "coordinates": [ 147.8486, 42.0661 ]
      }
    },
    {
      "type": "Feature",
      "properties": {
        "id": "IWAKI",
        "type": "Compulsory",
        "name1": "イワキ"
      },
      "geometry": {
        "type": "Point",
        "coordinates": [ 140.9756, 37.1489 ]
      }
    },
    {
      "type": "Feature",
      "properties": {
        "id": "KADBO",
        "type": "Compulsory",
        "name1": "キャボー"
      },
      "geometry": {
        "type": "Point",
        "coordinates": [ 137.7467, 39.2361 ]
      }
    },
    {
      "type": "Feature",
      "properties": {
        "id": "KAGAWA",
        "type": "Compulsory",
        "name1": "カガワ"
      },
      "geometry": {
        "type": "Point",
        "coordinates": [ 134.0225, 34.2125 ]
      }
    },
    {
      "type": "Feature",
      "properties": {
        "id": "KAGIS",
        "type": "Compulsory",
        "name1": "ケイギス"
      },
      "geometry": {
        "type": "Point",
        "coordinates": [ 142.5636, 35.8203 ]
      }
    },
    {
      "type": "Feature",
      "properties": {
        "id": "KAGOSHIMA",
        "type": "Compulsory",
        "name1": "カゴシマ"
      },
      "geometry": {
        "type": "Point",
        "coordinates": [ 130.5831, 31.6972 ]
      }
    },
    {
      "type": "Feature",
      "properties": {
        "id": "KAKNI",
        "type": "Compulsory",
        "name1": "カクニ"
      },
      "geometry": {
        "type": "Point",
        "coordinates": [ 147.6297, 30.0042 ]
      }
    },
    {
      "type": "Feature",
      "properties": {
        "id": "KALEK",
        "type": "Compulsory",
        "name1": "カレク"
      },
      "geometry": {
        "type": "Point",
        "coordinates": [ 129.8847, 35.2089 ]
      }
    },
    {
      "type": "Feature",
      "properties": {
        "id": "KALIG",
        "type": "Compulsory",
        "name1": "カリグ"
      },
      "geometry": {
        "type": "Point",
        "coordinates": [ 155.6689, 42.9817 ]
      }
    },
    {
      "type": "Feature",
      "properties": {
        "id": "KALNA",
        "type": "Compulsory",
        "name1": "カルナ"
      },
      "geometry": {
        "type": "Point",
        "coordinates": [ 149.8256, 39.1539 ]
      }
    },
    {
      "type": "Feature",
      "properties": {
        "id": "KEITH",
        "type": "Compulsory",
        "name1": "キース"
      },
      "geometry": {
        "type": "Point",
        "coordinates": [ 134.9467, 21.0000 ]
      }
    },
    {
      "type": "Feature",
      "properties": {
        "id": "KOCHI",
        "type": "Compulsory",
        "name1": "コウチ"
      },
      "geometry": {
        "type": "Point",
        "coordinates": [ 133.6803, 33.5417 ]
      }
    },
    {
      "type": "Feature",
      "properties": {
        "id": "KOMATSU",
        "type": "Compulsory",
        "name1": "コマツ"
      },
      "geometry": {
        "type": "Point",
        "coordinates": [ 136.4042, 36.3964 ]
      }
    },
    {
      "type": "Feature",
      "properties": {
        "id": "KUMAMOTO",
        "type": "Compulsory",
        "name1": "クマモト"
      },
      "geometry": {
        "type": "Point",
        "coordinates": [ 130.8417, 32.8347 ]
      }
    },
    {
      "type": "Feature",
      "properties": {
        "id": "KUSHIMOTO",
        "type": "Compulsory",
        "name1": "クシモト"
      },
      "geometry": {
        "type": "Point",
        "coordinates": [ 135.7944, 33.4478 ]
      }
    },
    {
      "type": "Feature",
      "properties": {
        "id": "KUSHIRO",
        "type": "Compulsory",
        "name1": "クシロ"
      },
      "geometry": {
        "type": "Point",
        "coordinates": [ 144.2008, 43.0361 ]
      }
    },
    {
      "type": "Feature",
      "properties": {
        "id": "LANAT",
        "type": "Compulsory",
        "name1": "ラナット"
      },
      "geometry": {
        "type": "Point",
        "coordinates": [ 131.4283, 36.3733 ]
      }
    },
    {
      "type": "Feature",
      "properties": {
        "id": "LAPIL",
        "type": "Compulsory",
        "name1": "ラピル"
      },
      "geometry": {
        "type": "Point",
        "coordinates": [ 144.9589, 35.2881 ]
      }
    },
    {
      "type": "Feature",
      "properties": {
        "id": "LEBIX",
        "type": "Compulsory",
        "name1": "レビックス"
      },
      "geometry": {
        "type": "Point",
        "coordinates": [ 123.9083, 21.0000 ]
      }
    },
    {
      "type": "Feature",
      "properties": {
        "id": "LEPKI",
        "type": "Compulsory",
        "name1": "レプキ"
      },
      "geometry": {
        "type": "Point",
        "coordinates": [ 150.0000, 37.0000 ]
      }
    },
    {
      "type": "Feature",
      "properties": {
        "id": "LUMIN",
        "type": "Compulsory",
        "name1": "ルーミン"
      },
      "geometry": {
        "type": "Point",
        "coordinates": [ 141.8383, 45.7500 ]
      }
    },
    {
      "type": "Feature",
      "properties": {
        "id": "MAKDA",
        "type": "Compulsory",
        "name1": "マクダ"
      },
      "geometry": {
        "type": "Point",
        "coordinates": [ 135.8506, 27.2708 ]
      }
    },
    {
      "type": "Feature",
      "properties": {
        "id": "MAKMU",
        "type": "Compulsory",
        "name1": "マクム"
      },
      "geometry": {
        "type": "Point",
        "coordinates": [ 144.5117, 38.6875 ]
      }
    },
    {
      "type": "Feature",
      "properties": {
        "id": "MATSUYAMA",
        "type": "Compulsory",
        "name1": "マツヤマ"
      },
      "geometry": {
        "type": "Point",
        "coordinates": [ 132.6922, 33.8300 ]
      }
    },
    {
      "type": "Feature",
      "properties": {
        "id": "MEMANBETSU",
        "type": "Compulsory",
        "name1": "メマンベツ"
      },
      "geometry": {
        "type": "Point",
        "coordinates": [ 144.1661, 43.8850 ]
      }
    },
    {
      "type": "Feature",
      "properties": {
        "id": "MEVIN",
        "type": "Compulsory",
        "name1": "メビン"
      },
      "geometry": {
        "type": "Point",
        "coordinates": [ 122.5500, 21.0000 ]
      }
    },
    {
      "type": "Feature",
      "properties": {
        "id": "MIKES",
        "type": "Compulsory",
        "name1": "マイクス"
      },
      "geometry": {
        "type": "Point",
        "coordinates": [ 125.7481, 29.5869 ]
      }
    },
    {
      "type": "Feature",
      "properties": {
        "id": "MIMOD",
        "type": "Compulsory",
        "name1": "ミモッド"
      },
      "geometry": {
        "type": "Point",
        "coordinates": [ 131.7481, 29.5897 ]
      }
    },
    {
      "type": "Feature",
      "properties": {
        "id": "MINAMIDAITO",
        "type": "Compulsory",
        "name1": "ミナミダイトウ"
      },
      "geometry": {
        "type": "Point",
        "coordinates": [ 131.2639, 25.8544 ]
      }
    },
    {
      "type": "Feature",
      "properties": {
        "id": "MIYAKO",
        "type": "Compulsory",
        "name1": "ミヤコ"
      },
      "geometry": {
        "type": "Point",
        "coordinates": [ 141.9511, 39.8656 ]
      }
    },
    {
      "type": "Feature",
      "properties": {
        "id": "MIYAKOJIMA",
        "type": "Compulsory",
        "name1": "ミヤコジマ"
      },
      "geometry": {
        "type": "Point",
        "coordinates": [ 125.2933, 24.7775 ]
      }
    },
    {
      "type": "Feature",
      "properties": {
        "id": "MIYAZU",
        "type": "Compulsory",
        "name1": "ミヤヅ"
      },
      "geometry": {
        "type": "Point",
        "coordinates": [ 135.1369, 35.4806 ]
      }
    },
    {
      "type": "Feature",
      "properties": {
        "id": "MONBETSU",
        "type": "Compulsory",
        "name1": "モンベツ"
      },
      "geometry": {
        "type": "Point",
        "coordinates": [ 143.3950, 44.3053 ]
      }
    },
    {
      "type": "Feature",
      "properties": {
        "id": "MONPI",
        "type": "Compulsory",
        "name1": "モンピ"
      },
      "geometry": {
        "type": "Point",
        "coordinates": [ 124.7206, 27.6222 ]
      }
    },
    {
      "type": "Feature",
      "properties": {
        "id": "NAGASAKI",
        "type": "Compulsory",
        "name1": "ナガサキ"
      },
      "geometry": {
        "type": "Point",
        "coordinates": [ 129.9181, 32.9053 ]
      }
    },
    {
      "type": "Feature",
      "properties": {
        "id": "NAGOYA",
        "type": "Compulsory",
        "name1": "ナゴヤ"
      },
      "geometry": {
        "type": "Point",
        "coordinates": [ 136.9150, 35.2653 ]
      }
    },
    {
      "type": "Feature",
      "properties": {
        "id": "NAHA",
        "type": "Compulsory",
        "name1": "ナハ"
      },
      "geometry": {
        "type": "Point",
        "coordinates": [ 127.6428, 26.2086 ]
      }
    },
    {
      "type": "Feature",
      "properties": {
        "id": "NAKATANE",
        "type": "Compulsory",
        "name1": "ナカタネ"
      },
      "geometry": {
        "type": "Point",
        "coordinates": [ 130.9917, 30.6022 ]
      }
    },
    {
      "type": "Feature",
      "properties": {
        "id": "NANAC",
        "type": "Compulsory",
        "name1": "ナナック"
      },
      "geometry": {
        "type": "Point",
        "coordinates": [ 143.2281, 38.9064 ]
      }
    },
    {
      "type": "Feature",
      "properties": {
        "id": "NIIGATA",
        "type": "Compulsory",
        "name1": "ニイガタ"
      },
      "geometry": {
        "type": "Point",
        "coordinates": [ 139.1150, 37.9583 ]
      }
    },
    {
      "type": "Feature",
      "properties": {
        "id": "NIPPI",
        "type": "Compulsory",
        "name1": "ニッピ"
      },
      "geometry": {
        "type": "Point",
        "coordinates": [ 159.3467, 49.7100 ]
      }
    },
    {
      "type": "Feature",
      "properties": {
        "id": "NITOT",
        "type": "Compulsory",
        "name1": "ニトット"
      },
      "geometry": {
        "type": "Point",
        "coordinates": [ 148.8414, 25.0044 ]
      }
    },
    {
      "type": "Feature",
      "properties": {
        "id": "NOGAK",
        "type": "Compulsory",
        "name1": "ノガック"
      },
      "geometry": {
        "type": "Point",
        "coordinates": [ 143.1650, 30.0039 ]
      }
    },
    {
      "type": "Feature",
      "properties": {
        "id": "NOGAL",
        "type": "Compulsory",
        "name1": "ノガル"
      },
      "geometry": {
        "type": "Point",
        "coordinates": [ 153.0033, 46.2167 ]
      }
    },
    {
      "type": "Feature",
      "properties": {
        "id": "NUBDA",
        "type": "Compulsory",
        "name1": "ナブダ"
      },
      "geometry": {
        "type": "Point",
        "coordinates": [ 147.4758, 42.3908 ]
      }
    },
    {
      "type": "Feature",
      "properties": {
        "id": "OATIS",
        "type": "Compulsory",
        "name1": "オーティス"
      },
      "geometry": {
        "type": "Point",
        "coordinates": [ 143.5397, 37.8164 ]
      }
    },
    {
      "type": "Feature",
      "properties": {
        "id": "OBCHI",
        "type": "Compulsory",
        "name1": "オブチ"
      },
      "geometry": {
        "type": "Point",
        "coordinates": [ 141.8575, 40.8739 ]
      }
    },
    {
      "type": "Feature",
      "properties": {
        "id": "OBIHIRO",
        "type": "Compulsory",
        "name1": "オビヒロ"
      },
      "geometry": {
        "type": "Point",
        "coordinates": [ 143.2206, 42.7339 ]
      }
    },
    {
      "type": "Feature",
      "properties": {
        "id": "ODERI",
        "type": "Compulsory",
        "name1": "オデリ"
      },
      "geometry": {
        "type": "Point",
        "coordinates": [ 145.2556, 44.6500 ]
      }
    },
    {
      "type": "Feature",
      "properties": {
        "id": "OLDUP",
        "type": "Compulsory",
        "name1": "オールダップ"
      },
      "geometry": {
        "type": "Point",
        "coordinates": [ 135.3422, 30.1253 ]
      }
    },
    {
      "type": "Feature",
      "properties": {
        "id": "OMLET",
        "type": "Compulsory",
        "name1": "オムレット"
      },
      "geometry": {
        "type": "Point",
        "coordinates": [ 142.9900, 21.0000 ]
      }
    },
    {
      "type": "Feature",
      "properties": {
        "id": "OMOTO",
        "type": "Compulsory",
        "name1": "オモト"
      },
      "geometry": {
        "type": "Point",
        "coordinates": [ 138.4311, 35.2931 ]
      }
    },
    {
      "type": "Feature",
      "properties": {
        "id": "ONEMU",
        "type": "Compulsory",
        "name1": "オネム"
      },
      "geometry": {
        "type": "Point",
        "coordinates": [ 145.7731, 41.7394 ]
      }
    },
    {
      "type": "Feature",
      "properties": {
        "id": "ONIKU",
        "type": "Compulsory",
        "name1": "オニク"
      },
      "geometry": {
        "type": "Point",
        "coordinates": [ 126.6547, 32.1950 ]
      }
    },
    {
      "type": "Feature",
      "properties": {
        "id": "OPULO",
        "type": "Compulsory",
        "name1": "オプロ"
      },
      "geometry": {
        "type": "Point",
        "coordinates": [ 153.7200, 45.5308 ]
      }
    },
    {
      "type": "Feature",
      "properties": {
        "id": "OSHIMA",
        "type": "Compulsory",
        "name1": "オオシマ"
      },
      "geometry": {
        "type": "Point",
        "coordinates": [ 139.4139, 34.7122 ]
      }
    },
    {
      "type": "Feature",
      "properties": {
        "id": "OYAMA",
        "type": "Compulsory",
        "name1": "オヤマ"
      },
      "geometry": {
        "type": "Point",
        "coordinates": [ 139.5614, 34.0711 ]
      }
    },
    {
      "type": "Feature",
      "properties": {
        "id": "PAKDO",
        "type": "Compulsory",
        "name1": "パクド"
      },
      "geometry": {
        "type": "Point",
        "coordinates": [ 137.8217, 21.0000 ]
      }
    },
    {
      "type": "Feature",
      "properties": {
        "id": "PASRO",
        "type": "Compulsory",
        "name1": "パスロ"
      },
      "geometry": {
        "type": "Point",
        "coordinates": [ 160.6814, 48.2789 ]
      }
    },
    {
      "type": "Feature",
      "properties": {
        "id": "PIPIK",
        "type": "Compulsory",
        "name1": "ピピック"
      },
      "geometry": {
        "type": "Point",
        "coordinates": [ 144.3111, 34.1600 ]
      }
    },
    {
      "type": "Feature",
      "properties": {
        "id": "POVAL",
        "type": "Compulsory",
        "name1": "ポヴァル"
      },
      "geometry": {
        "type": "Point",
        "coordinates": [ 144.4908, 34.4750 ]
      }
    },
    {
      "type": "Feature",
      "properties": {
        "id": "POXED",
        "type": "Compulsory",
        "name1": "ポクスト"
      },
      "geometry": {
        "type": "Point",
        "coordinates": [ 148.9425, 41.0847 ]
      }
    },
    {
      "type": "Feature",
      "properties": {
        "id": "PUGAL",
        "type": "Compulsory",
        "name1": "プガル"
      },
      "geometry": {
        "type": "Point",
        "coordinates": [ 154.4167, 44.8578 ]
      }
    },
    {
      "type": "Feature",
      "properties": {
        "id": "PUTER",
        "type": "Compulsory",
        "name1": "パター"
      },
      "geometry": {
        "type": "Point",
        "coordinates": [ 145.5186, 38.3325 ]
      }
    },
    {
      "type": "Feature",
      "properties": {
        "id": "RUGMA",
        "type": "Compulsory",
        "name1": "ラグマ"
      },
      "geometry": {
        "type": "Point",
        "coordinates": [ 126.9647, 32.5033 ]
      }
    },
    {
      "type": "Feature",
      "properties": {
        "id": "RUGMO",
        "type": "Compulsory",
        "name1": "ラグモ"
      },
      "geometry": {
        "type": "Point",
        "coordinates": [ 143.4969, 43.0761 ]
      }
    },
    {
      "type": "Feature",
      "properties": {
        "id": "RUSAR",
        "type": "Compulsory",
        "name1": "ルサー"
      },
      "geometry": {
        "type": "Point",
        "coordinates": [ 127.8372, 29.8650 ]
      }
    },
    {
      "type": "Feature",
      "properties": {
        "id": "SABAN",
        "type": "Compulsory",
        "name1": "サーバン"
      },
      "geometry": {
        "type": "Point",
        "coordinates": [ 132.2067, 29.5803 ]
      }
    },
    {
      "type": "Feature",
      "properties": {
        "id": "SABGU",
        "type": "Compulsory",
        "name1": "サブグ"
      },
      "geometry": {
        "type": "Point",
        "coordinates": [ 134.9892, 25.4975 ]
      }
    },
    {
      "type": "Feature",
      "properties": {
        "id": "SADEK",
        "type": "Compulsory",
        "name1": "サーデック"
      },
      "geometry": {
        "type": "Point",
        "coordinates": [ 123.9650, 23.0042 ]
      }
    },
    {
      "type": "Feature",
      "properties": {
        "id": "SAGOP",
        "type": "Compulsory",
        "name1": "サゴップ"
      },
      "geometry": {
        "type": "Point",
        "coordinates": [ 144.3400, 25.0044 ]
      }
    },
    {
      "type": "Feature",
      "properties": {
        "id": "SAKON",
        "type": "Compulsory",
        "name1": "サーコン"
      },
      "geometry": {
        "type": "Point",
        "coordinates": [ 126.6981, 24.1208 ]
      }
    },
    {
      "type": "Feature",
      "properties": {
        "id": "SALMI",
        "type": "Compulsory",
        "name1": "サルミ"
      },
      "geometry": {
        "type": "Point",
        "coordinates": [ 124.0000, 28.3150 ]
      }
    },
    {
      "type": "Feature",
      "properties": {
        "id": "SALVA",
        "type": "Compulsory",
        "name1": "サルバ"
      },
      "geometry": {
        "type": "Point",
        "coordinates": [ 130.9944, 22.3789 ]
      }
    },
    {
      "type": "Feature",
      "properties": {
        "id": "SAMBO",
        "type": "Compulsory",
        "name1": "サンボ"
      },
      "geometry": {
        "type": "Point",
        "coordinates": [ 140.9503, 40.1878 ]
      }
    },
    {
      "type": "Feature",
      "properties": {
        "id": "SAMDO",
        "type": "Compulsory",
        "name1": "サムド"
      },
      "geometry": {
        "type": "Point",
        "coordinates": [ 131.2789, 33.5842 ]
      }
    },
    {
      "type": "Feature",
      "properties": {
        "id": "SAPPORO",
        "type": "Compulsory",
        "name1": "サッポロ"
      },
      "geometry": {
        "type": "Point",
        "coordinates": [ 141.3814, 43.1114 ]
      }
    },
    {
      "type": "Feature",
      "properties": {
        "id": "SAPRA",
        "type": "Compulsory",
        "name1": "サプラ"
      },
      "geometry": {
        "type": "Point",
        "coordinates": [ 130.7236, 35.8239 ]
      }
    },
    {
      "type": "Feature",
      "properties": {
        "id": "SEDKU",
        "type": "Compulsory",
        "name1": "セドック"
      },
      "geometry": {
        "type": "Point",
        "coordinates": [ 124.0000, 24.9333 ]
      }
    },
    {
      "type": "Feature",
      "properties": {
        "id": "SEGRO",
        "type": "Compulsory",
        "name1": "セグロ"
      },
      "geometry": {
        "type": "Point",
        "coordinates": [ 151.3864, 25.0047 ]
      }
    },
    {
      "type": "Feature",
      "properties": {
        "id": "SENDAI",
        "type": "Compulsory",
        "name1": "センダイ"
      },
      "geometry": {
        "type": "Point",
        "coordinates": [ 140.9214, 38.1386 ]
      }
    },
    {
      "type": "Feature",
      "properties": {
        "id": "SEPIA",
        "type": "Compulsory",
        "name1": "セピア"
      },
      "geometry": {
        "type": "Point",
        "coordinates": [ 130.6347, 30.0089 ]
      }
    },
    {
      "type": "Feature",
      "properties": {
        "id": "SHIMIZU",
        "type": "Compulsory",
        "name1": "シミズ"
      },
      "geometry": {
        "type": "Point",
        "coordinates": [ 132.9967, 32.7558 ]
      }
    },
    {
      "type": "Feature",
      "properties": {
        "id": "SMOLT",
        "type": "Compulsory",
        "name1": "スモルト"
      },
      "geometry": {
        "type": "Point",
        "coordinates": [ 143.5164, 34.5800 ]
      }
    },
    {
      "type": "Feature",
      "properties": {
        "id": "TAPOP",
        "type": "Compulsory",
        "name1": "タポップ"
      },
      "geometry": {
        "type": "Point",
        "coordinates": [ 136.2728, 32.3381 ]
      }
    },
    {
      "type": "Feature",
      "properties": {
        "id": "TAXON",
        "type": "Compulsory",
        "name1": "タクソン"
      },
      "geometry": {
        "type": "Point",
        "coordinates": [ 137.2389, 30.0039 ]
      }
    },
    {
      "type": "Feature",
      "properties": {
        "id": "TEGOD",
        "type": "Compulsory",
        "name1": "テゴッド"
      },
      "geometry": {
        "type": "Point",
        "coordinates": [ 145.1967, 21.0000 ]
      }
    },
    {
      "type": "Feature",
      "properties": {
        "id": "TONIK",
        "type": "Compulsory",
        "name1": "トニック"
      },
      "geometry": {
        "type": "Point",
        "coordinates": [ 145.9964, 32.0039 ]
      }
    },
    {
      "type": "Feature",
      "properties": {
        "id": "TUNTO",
        "type": "Compulsory",
        "name1": "タント"
      },
      "geometry": {
        "type": "Point",
        "coordinates": [ 129.0814, 23.0044 ]
      }
    },
    {
      "type": "Feature",
      "properties": {
        "id": "UKATA",
        "type": "Compulsory",
        "name1": "ユカタ"
      },
      "geometry": {
        "type": "Point",
        "coordinates": [ 140.3461, 30.0008 ]
      }
    },
    {
      "type": "Feature",
      "properties": {
        "id": "UPDOB",
        "type": "Compulsory",
        "name1": "アプドブ"
      },
      "geometry": {
        "type": "Point",
        "coordinates": [ 146.8514, 30.0042 ]
      }
    },
    {
      "type": "Feature",
      "properties": {
        "id": "VACKY",
        "type": "Compulsory",
        "name1": "バッキー"
      },
      "geometry": {
        "type": "Point",
        "coordinates": [ 143.8114, 35.2400 ]
      }
    },
    {
      "type": "Feature",
      "properties": {
        "id": "VASKO",
        "type": "Compulsory",
        "name1": "バスコ"
      },
      "geometry": {
        "type": "Point",
        "coordinates": [ 142.0369, 25.0044 ]
      }
    },
    {
      "type": "Feature",
      "properties": {
        "id": "WAKKANAI",
        "type": "Compulsory",
        "name1": "ワッカナイ"
      },
      "geometry": {
        "type": "Point",
        "coordinates": [ 141.8056, 45.4072 ]
      }
    },
    {
      "type": "Feature",
      "properties": {
        "id": "YAMAGATA",
        "type": "Compulsory",
        "name1": "ヤマガタ"
      },
      "geometry": {
        "type": "Point",
        "coordinates": [ 140.3581, 38.3886 ]
      }
    },
    {
      "type": "Feature",
      "properties": {
        "id": "YOSHI",
        "type": "Compulsory",
        "name1": "ヨシ"
      },
      "geometry": {
        "type": "Point",
        "coordinates": [ 138.9575, 33.1708 ]
      }
    },
    {
      "type": "Feature",
      "properties": {
        "id": "YUWA",
        "type": "Compulsory",
        "name1": "ユウワ"
      },
      "geometry": {
        "type": "Point",
        "coordinates": [ 140.1869, 39.6172 ]
      }
    },
    {
      "type": "Feature",
      "properties": {
        "id": "AMITY",
        "type": "Non-Compulsory",
        "name1": "アミティ"
      },
      "geometry": {
        "type": "Point",
        "coordinates": [ 140.2575, 35.9717 ]
      }
    },
    {
      "type": "Feature",
      "properties": {
        "id": "AMMON",
        "type": "Non-Compulsory",
        "name1": "アモン"
      },
      "geometry": {
        "type": "Point",
        "coordinates": [ 130.6144, 31.1786 ]
      }
    },
    {
      "type": "Feature",
      "properties": {
        "id": "ANCOU",
        "type": "Non-Compulsory",
        "name1": "アンコウ"
      },
      "geometry": {
        "type": "Point",
        "coordinates": [ 139.6700, 38.8008 ]
      }
    },
    {
      "type": "Feature",
      "properties": {
        "id": "ANJYO",
        "type": "Non-Compulsory",
        "name1": "アンジョー"
      },
      "geometry": {
        "type": "Point",
        "coordinates": [ 137.1025, 34.9997 ]
      }
    },
    {
      "type": "Feature",
      "properties": {
        "id": "ANKOH",
        "type": "Non-Compulsory",
        "name1": "アンコー"
      },
      "geometry": {
        "type": "Point",
        "coordinates": [ 140.8858, 36.2442 ]
      }
    },
    {
      "type": "Feature",
      "properties": {
        "id": "ANNIE",
        "type": "Non-Compulsory",
        "name1": "アニー"
      },
      "geometry": {
        "type": "Point",
        "coordinates": [ 125.0167, 25.3106 ]
      }
    },
    {
      "type": "Feature",
      "properties": {
        "id": "ANOXA",
        "type": "Non-Compulsory",
        "name1": "アノクサ"
      },
      "geometry": {
        "type": "Point",
        "coordinates": [ 129.3769, 28.9889 ]
      }
    },
    {
      "type": "Feature",
      "properties": {
        "id": "ANPAL",
        "type": "Non-Compulsory",
        "name1": "アンパル"
      },
      "geometry": {
        "type": "Point",
        "coordinates": [ 124.1989, 24.3153 ]
      }
    },
    {
      "type": "Feature",
      "properties": {
        "id": "ANPAN",
        "type": "Non-Compulsory",
        "name1": "アンパン"
      },
      "geometry": {
        "type": "Point",
        "coordinates": [ 133.8469, 33.4189 ]
      }
    },
    {
      "type": "Feature",
      "properties": {
        "id": "ANPEP",
        "type": "Non-Compulsory",
        "name1": "アンペップ"
      },
      "geometry": {
        "type": "Point",
        "coordinates": [ 131.6844, 34.7033 ]
      }
    },
    {
      "type": "Feature",
      "properties": {
        "id": "ANREM",
        "type": "Non-Compulsory",
        "name1": "アンレム"
      },
      "geometry": {
        "type": "Point",
        "coordinates": [ 130.8347, 30.3425 ]
      }
    },
    {
      "type": "Feature",
      "properties": {
        "id": "ANROX",
        "type": "Non-Compulsory",
        "name1": "アンロックス"
      },
      "geometry": {
        "type": "Point",
        "coordinates": [ 136.9603, 34.6550 ]
      }
    },
    {
      "type": "Feature",
      "properties": {
        "id": "AOBAR",
        "type": "Non-Compulsory",
        "name1": "アオバ"
      },
      "geometry": {
        "type": "Point",
        "coordinates": [ 141.1231, 38.0172 ]
      }
    },
    {
      "type": "Feature",
      "properties": {
        "id": "AOIKE",
        "type": "Non-Compulsory",
        "name1": "アオイケ"
      },
      "geometry": {
        "type": "Point",
        "coordinates": [ 142.5369, 43.5364 ]
      }
    },
    {
      "type": "Feature",
      "properties": {
        "id": "AONII",
        "type": "Non-Compulsory",
        "name1": "アオニー"
      },
      "geometry": {
        "type": "Point",
        "coordinates": [ 133.9606, 34.8003 ]
      }
    },
    {
      "type": "Feature",
      "properties": {
        "id": "APITO",
        "type": "Non-Compulsory",
        "name1": "アピト"
      },
      "geometry": {
        "type": "Point",
        "coordinates": [ 124.0000, 29.5833 ]
      }
    },
    {
      "type": "Feature",
      "properties": {
        "id": "APOLO",
        "type": "Non-Compulsory",
        "name1": "アポロ"
      },
      "geometry": {
        "type": "Point",
        "coordinates": [ 139.9375, 35.3219 ]
      }
    },
    {
      "type": "Feature",
      "properties": {
        "id": "ARAOH",
        "type": "Non-Compulsory",
        "name1": "アラオ"
      },
      "geometry": {
        "type": "Point",
        "coordinates": [ 130.5231, 33.0172 ]
      }
    },
    {
      "type": "Feature",
      "properties": {
        "id": "ARAPA",
        "type": "Non-Compulsory",
        "name1": "アラパ"
      },
      "geometry": {
        "type": "Point",
        "coordinates": [ 141.6906, 42.6694 ]
      }
    },
    {
      "type": "Feature",
      "properties": {
        "id": "AREPO",
        "type": "Non-Compulsory",
        "name1": "アレッポ"
      },
      "geometry": {
        "type": "Point",
        "coordinates": [ 143.8167, 41.4936 ]
      }
    },
    {
      "type": "Feature",
      "properties": {
        "id": "ARIES",
        "type": "Non-Compulsory",
        "name1": "アリーズ"
      },
      "geometry": {
        "type": "Point",
        "coordinates": [ 140.2517, 35.9356 ]
      }
    },
    {
      "type": "Feature",
      "properties": {
        "id": "ARIMA",
        "type": "Non-Compulsory",
        "name1": "アリマ"
      },
      "geometry": {
        "type": "Point",
        "coordinates": [ 135.1058, 34.7564 ]
      }
    },
    {
      "type": "Feature",
      "properties": {
        "id": "ARLON",
        "type": "Non-Compulsory",
        "name1": "アーロン"
      },
      "geometry": {
        "type": "Point",
        "coordinates": [ 139.9831, 35.2569 ]
      }
    },
    {
      "type": "Feature",
      "properties": {
        "id": "ARSAR",
        "type": "Non-Compulsory",
        "name1": "アーサー"
      },
      "geometry": {
        "type": "Point",
        "coordinates": [ 131.2422, 34.0922 ]
      }
    },
    {
      "type": "Feature",
      "properties": {
        "id": "ASAGI",
        "type": "Non-Compulsory",
        "name1": "アサギ"
      },
      "geometry": {
        "type": "Point",
        "coordinates": [ 134.7506, 35.0436 ]
      }
    },
    {
      "type": "Feature",
      "properties": {
        "id": "ASAHIKAWA",
        "type": "Non-Compulsory",
        "name1": "アサヒカワ"
      },
      "geometry": {
        "type": "Point",
        "coordinates": [ 142.4550, 43.6672 ]
      }
    },
    {
      "type": "Feature",
      "properties": {
        "id": "ASAJI",
        "type": "Non-Compulsory",
        "name1": "アサジ"
      },
      "geometry": {
        "type": "Point",
        "coordinates": [ 133.1456, 36.1153 ]
      }
    },
    {
      "type": "Feature",
      "properties": {
        "id": "ASAMA",
        "type": "Non-Compulsory",
        "name1": "アサマ"
      },
      "geometry": {
        "type": "Point",
        "coordinates": [ 131.1406, 32.8631 ]
      }
    },
    {
      "type": "Feature",
      "properties": {
        "id": "ASARI",
        "type": "Non-Compulsory",
        "name1": "アサリ"
      },
      "geometry": {
        "type": "Point",
        "coordinates": [ 131.2144, 33.8942 ]
      }
    },
    {
      "type": "Feature",
      "properties": {
        "id": "ASATO",
        "type": "Non-Compulsory",
        "name1": "アサト"
      },
      "geometry": {
        "type": "Point",
        "coordinates": [ 128.5042, 27.1817 ]
      }
    },
    {
      "type": "Feature",
      "properties": {
        "id": "ASEKI",
        "type": "Non-Compulsory",
        "name1": "アセキ"
      },
      "geometry": {
        "type": "Point",
        "coordinates": [ 140.0206, 36.0853 ]
      }
    },
    {
      "type": "Feature",
      "properties": {
        "id": "ASIBE",
        "type": "Non-Compulsory",
        "name1": "アシベ"
      },
      "geometry": {
        "type": "Point",
        "coordinates": [ 142.2836, 43.4511 ]
      }
    },
    {
      "type": "Feature",
      "properties": {
        "id": "ASIMO",
        "type": "Non-Compulsory",
        "name1": "アシモ"
      },
      "geometry": {
        "type": "Point",
        "coordinates": [ 140.3478, 34.6883 ]
      }
    },
    {
      "type": "Feature",
      "properties": {
        "id": "ASONO",
        "type": "Non-Compulsory",
        "name1": "アソノ"
      },
      "geometry": {
        "type": "Point",
        "coordinates": [ 131.2469, 33.0161 ]
      }
    },
    {
      "type": "Feature",
      "properties": {
        "id": "ASPEL",
        "type": "Non-Compulsory",
        "name1": "アスペル"
      },
      "geometry": {
        "type": "Point",
        "coordinates": [ 131.1617, 33.8786 ]
      }
    },
    {
      "type": "Feature",
      "properties": {
        "id": "ASUDA",
        "type": "Non-Compulsory",
        "name1": "アサダ"
      },
      "geometry": {
        "type": "Point",
        "coordinates": [ 141.5769, 40.5936 ]
      }
    },
    {
      "type": "Feature",
      "properties": {
        "id": "ASUKA",
        "type": "Non-Compulsory",
        "name1": "アスカ"
      },
      "geometry": {
        "type": "Point",
        "coordinates": [ 135.7611, 34.7675 ]
      }
    },
    {
      "type": "Feature",
      "properties": {
        "id": "ATAMI",
        "type": "Non-Compulsory",
        "name1": "アタミ"
      },
      "geometry": {
        "type": "Point",
        "coordinates": [ 139.2678, 34.9469 ]
      }
    },
    {
      "type": "Feature",
      "properties": {
        "id": "ATERA",
        "type": "Non-Compulsory",
        "name1": "アテラ"
      },
      "geometry": {
        "type": "Point",
        "coordinates": [ 140.2942, 38.2650 ]
      }
    },
    {
      "type": "Feature",
      "properties": {
        "id": "ATLER",
        "type": "Non-Compulsory",
        "name1": "アトラー"
      },
      "geometry": {
        "type": "Point",
        "coordinates": [ 130.7561, 33.7225 ]
      }
    },
    {
      "type": "Feature",
      "properties": {
        "id": "ATMIK",
        "type": "Non-Compulsory",
        "name1": "アトミック"
      },
      "geometry": {
        "type": "Point",
        "coordinates": [ 133.6867, 35.4206 ]
      }
    },
    {
      "type": "Feature",
      "properties": {
        "id": "ATUMI",
        "type": "Non-Compulsory",
        "name1": "アツミ"
      },
      "geometry": {
        "type": "Point",
        "coordinates": [ 139.4058, 38.6369 ]
      }
    },
    {
      "type": "Feature",
      "properties": {
        "id": "AVBEK",
        "type": "Non-Compulsory",
        "name1": "アヴベック"
      },
      "geometry": {
        "type": "Point",
        "coordinates": [ 131.0181, 33.9294 ]
      }
    },
    {
      "type": "Feature",
      "properties": {
        "id": "AWARA",
        "type": "Non-Compulsory",
        "name1": "アワラ"
      },
      "geometry": {
        "type": "Point",
        "coordinates": [ 136.0964, 36.2997 ]
      }
    },
    {
      "type": "Feature",
      "properties": {
        "id": "AWASI",
        "type": "Non-Compulsory",
        "name1": "アワシ"
      },
      "geometry": {
        "type": "Point",
        "coordinates": [ 140.9331, 38.4056 ]
      }
    },
    {
      "type": "Feature",
      "properties": {
        "id": "AXIZU",
        "type": "Non-Compulsory",
        "name1": "アクシズ"
      },
      "geometry": {
        "type": "Point",
        "coordinates": [ 139.8217, 35.4858 ]
      }
    },
    {
      "type": "Feature",
      "properties": {
        "id": "AYAGU",
        "type": "Non-Compulsory",
        "name1": "アヤグ"
      },
      "geometry": {
        "type": "Point",
        "coordinates": [ 125.1203, 24.9169 ]
      }
    },
    {
      "type": "Feature",
      "properties": {
        "id": "AYAKA",
        "type": "Non-Compulsory",
        "name1": "アヤカ"
      },
      "geometry": {
        "type": "Point",
        "coordinates": [ 123.5919, 24.4042 ]
      }
    },
    {
      "type": "Feature",
      "properties": {
        "id": "AYANO",
        "type": "Non-Compulsory",
        "name1": "アヤノ"
      },
      "geometry": {
        "type": "Point",
        "coordinates": [ 136.3936, 34.0961 ]
      }
    },
    {
      "type": "Feature",
      "properties": {
        "id": "AYAYA",
        "type": "Non-Compulsory",
        "name1": "アヤヤ"
      },
      "geometry": {
        "type": "Point",
        "coordinates": [ 134.5383, 34.7553 ]
      }
    },
    {
      "type": "Feature",
      "properties": {
        "id": "AZUKI",
        "type": "Non-Compulsory",
        "name1": "アズキ"
      },
      "geometry": {
        "type": "Point",
        "coordinates": [ 130.8961, 32.4019 ]
      }
    },
    {
      "type": "Feature",
      "properties": {
        "id": "AZUMI",
        "type": "Non-Compulsory",
        "name1": "アズミ"
      },
      "geometry": {
        "type": "Point",
        "coordinates": [ 137.9092, 36.4806 ]
      }
    },
    {
      "type": "Feature",
      "properties": {
        "id": "AZURE",
        "type": "Non-Compulsory",
        "name1": "アズール"
      },
      "geometry": {
        "type": "Point",
        "coordinates": [ 139.8311, 35.4725 ]
      }
    },
    {
      "type": "Feature",
      "properties": {
        "id": "BAARU",
        "type": "Non-Compulsory",
        "name1": "バール"
      },
      "geometry": {
        "type": "Point",
        "coordinates": [ 132.4653, 35.2514 ]
      }
    },
    {
      "type": "Feature",
      "properties": {
        "id": "BAHAN",
        "type": "Non-Compulsory",
        "name1": "バハン"
      },
      "geometry": {
        "type": "Point",
        "coordinates": [ 128.7992, 32.5786 ]
      }
    },
    {
      "type": "Feature",
      "properties": {
        "id": "BAIEN",
        "type": "Non-Compulsory",
        "name1": "バイエン"
      },
      "geometry": {
        "type": "Point",
        "coordinates": [ 131.8497, 33.6222 ]
      }
    },
    {
      "type": "Feature",
      "properties": {
        "id": "BAJYO",
        "type": "Non-Compulsory",
        "name1": "バジョー"
      },
      "geometry": {
        "type": "Point",
        "coordinates": [ 139.1922, 37.9486 ]
      }
    },
    {
      "type": "Feature",
      "properties": {
        "id": "BALAN",
        "type": "Non-Compulsory",
        "name1": "バラン"
      },
      "geometry": {
        "type": "Point",
        "coordinates": [ 139.9911, 35.6050 ]
      }
    },
    {
      "type": "Feature",
      "properties": {
        "id": "BALAS",
        "type": "Non-Compulsory",
        "name1": "バラス"
      },
      "geometry": {
        "type": "Point",
        "coordinates": [ 124.1792, 24.3128 ]
      }
    },
    {
      "type": "Feature",
      "properties": {
        "id": "BAMBI",
        "type": "Non-Compulsory",
        "name1": "バンビ"
      },
      "geometry": {
        "type": "Point",
        "coordinates": [ 141.7358, 42.5164 ]
      }
    },
    {
      "type": "Feature",
      "properties": {
        "id": "BAMBO",
        "type": "Non-Compulsory",
        "name1": "バンブ"
      },
      "geometry": {
        "type": "Point",
        "coordinates": [ 132.8839, 34.3133 ]
      }
    },
    {
      "type": "Feature",
      "properties": {
        "id": "BANBA",
        "type": "Non-Compulsory",
        "name1": "バンバ"
      },
      "geometry": {
        "type": "Point",
        "coordinates": [ 143.2511, 42.6536 ]
      }
    },
    {
      "type": "Feature",
      "properties": {
        "id": "BANDO",
        "type": "Non-Compulsory",
        "name1": "バンドウ"
      },
      "geometry": {
        "type": "Point",
        "coordinates": [ 140.0069, 35.9889 ]
      }
    },
    {
      "type": "Feature",
      "properties": {
        "id": "BANNA",
        "type": "Non-Compulsory",
        "name1": "バンナ"
      },
      "geometry": {
        "type": "Point",
        "coordinates": [ 124.0694, 24.4964 ]
      }
    },
    {
      "type": "Feature",
      "properties": {
        "id": "BARBA",
        "type": "Non-Compulsory",
        "name1": "バーバ"
      },
      "geometry": {
        "type": "Point",
        "coordinates": [ 131.2142, 32.8814 ]
      }
    },
    {
      "type": "Feature",
      "properties": {
        "id": "BASHO",
        "type": "Non-Compulsory",
        "name1": "バショウ"
      },
      "geometry": {
        "type": "Point",
        "coordinates": [ 128.8442, 27.0658 ]
      }
    },
    {
      "type": "Feature",
      "properties": {
        "id": "BASIN",
        "type": "Non-Compulsory",
        "name1": "ベイシン"
      },
      "geometry": {
        "type": "Point",
        "coordinates": [ 138.9419, 38.1211 ]
      }
    },
    {
      "type": "Feature",
      "properties": {
        "id": "BATTL",
        "type": "Non-Compulsory",
        "name1": "バトル"
      },
      "geometry": {
        "type": "Point",
        "coordinates": [ 141.6667, 41.0553 ]
      }
    },
    {
      "type": "Feature",
      "properties": {
        "id": "BEAST",
        "type": "Non-Compulsory",
        "name1": "ビースト"
      },
      "geometry": {
        "type": "Point",
        "coordinates": [ 140.1431, 35.6056 ]
      }
    },
    {
      "type": "Feature",
      "properties": {
        "id": "BEBIL",
        "type": "Non-Compulsory",
        "name1": "ベビル"
      },
      "geometry": {
        "type": "Point",
        "coordinates": [ 135.3144, 34.5011 ]
      }
    },
    {
      "type": "Feature",
      "properties": {
        "id": "BECKY",
        "type": "Non-Compulsory",
        "name1": "ベッキー"
      },
      "geometry": {
        "type": "Point",
        "coordinates": [ 134.5086, 33.9192 ]
      }
    },
    {
      "type": "Feature",
      "properties": {
        "id": "BEEBA",
        "type": "Non-Compulsory",
        "name1": "ビーバ"
      },
      "geometry": {
        "type": "Point",
        "coordinates": [ 141.7164, 43.3519 ]
      }
    },
    {
      "type": "Feature",
      "properties": {
        "id": "BEETL",
        "type": "Non-Compulsory",
        "name1": "ビートル"
      },
      "geometry": {
        "type": "Point",
        "coordinates": [ 129.8292, 34.2625 ]
      }
    },
    {
      "type": "Feature",
      "properties": {
        "id": "BEGAD",
        "type": "Non-Compulsory",
        "name1": "ベガッド"
      },
      "geometry": {
        "type": "Point",
        "coordinates": [ 143.2467, 33.3869 ]
      }
    },
    {
      "type": "Feature",
      "properties": {
        "id": "BEIGE",
        "type": "Non-Compulsory",
        "name1": "ベージュ"
      },
      "geometry": {
        "type": "Point",
        "coordinates": [ 135.3631, 34.5339 ]
      }
    },
    {
      "type": "Feature",
      "properties": {
        "id": "BEKEN",
        "type": "Non-Compulsory",
        "name1": "ベケン"
      },
      "geometry": {
        "type": "Point",
        "coordinates": [ 142.0617, 38.0058 ]
      }
    },
    {
      "type": "Feature",
      "properties": {
        "id": "BENES",
        "type": "Non-Compulsory",
        "name1": "ベネス"
      },
      "geometry": {
        "type": "Point",
        "coordinates": [ 134.1553, 34.8344 ]
      }
    },
    {
      "type": "Feature",
      "properties": {
        "id": "BERRY",
        "type": "Non-Compulsory",
        "name1": "ベリー"
      },
      "geometry": {
        "type": "Point",
        "coordinates": [ 134.9422, 34.2506 ]
      }
    },
    {
      "type": "Feature",
      "properties": {
        "id": "BERTH",
        "type": "Non-Compulsory",
        "name1": "バース"
      },
      "geometry": {
        "type": "Point",
        "coordinates": [ 134.3167, 34.1531 ]
      }
    },
    {
      "type": "Feature",
      "properties": {
        "id": "BETTY",
        "type": "Non-Compulsory",
        "name1": "ベティー"
      },
      "geometry": {
        "type": "Point",
        "coordinates": [ 125.3011, 24.2056 ]
      }
    },
    {
      "type": "Feature",
      "properties": {
        "id": "BIGIT",
        "type": "Non-Compulsory",
        "name1": "ビギット"
      },
      "geometry": {
        "type": "Point",
        "coordinates": [ 127.1206, 32.0392 ]
      }
    },
    {
      "type": "Feature",
      "properties": {
        "id": "BINGO",
        "type": "Non-Compulsory",
        "name1": "ビンゴ"
      },
      "geometry": {
        "type": "Point",
        "coordinates": [ 133.1781, 34.4072 ]
      }
    },
    {
      "type": "Feature",
      "properties": {
        "id": "BINKS",
        "type": "Non-Compulsory",
        "name1": "ビンクス"
      },
      "geometry": {
        "type": "Point",
        "coordinates": [ 140.7325, 35.1878 ]
      }
    },
    {
      "type": "Feature",
      "properties": {
        "id": "BIRDY",
        "type": "Non-Compulsory",
        "name1": "バーディー"
      },
      "geometry": {
        "type": "Point",
        "coordinates": [ 140.3122, 35.8769 ]
      }
    },
    {
      "type": "Feature",
      "properties": {
        "id": "BISEI",
        "type": "Non-Compulsory",
        "name1": "ビセイ"
      },
      "geometry": {
        "type": "Point",
        "coordinates": [ 142.9289, 42.8653 ]
      }
    },
    {
      "type": "Feature",
      "properties": {
        "id": "BITEP",
        "type": "Non-Compulsory",
        "name1": "ビテップ"
      },
      "geometry": {
        "type": "Point",
        "coordinates": [ 136.9636, 34.5633 ]
      }
    },
    {
      "type": "Feature",
      "properties": {
        "id": "BIWWA",
        "type": "Non-Compulsory",
        "name1": "ビワ"
      },
      "geometry": {
        "type": "Point",
        "coordinates": [ 136.2561, 35.1161 ]
      }
    },
    {
      "type": "Feature",
      "properties": {
        "id": "BLISS",
        "type": "Non-Compulsory",
        "name1": "ブリス"
      },
      "geometry": {
        "type": "Point",
        "coordinates": [ 127.6397, 26.0469 ]
      }
    },
    {
      "type": "Feature",
      "properties": {
        "id": "BLUES",
        "type": "Non-Compulsory",
        "name1": "ブルース"
      },
      "geometry": {
        "type": "Point",
        "coordinates": [ 130.3817, 34.8664 ]
      }
    },
    {
      "type": "Feature",
      "properties": {
        "id": "BNCHO",
        "type": "Non-Compulsory",
        "name1": "ブンチョウ"
      },
      "geometry": {
        "type": "Point",
        "coordinates": [ 141.2719, 38.0933 ]
      }
    },
    {
      "type": "Feature",
      "properties": {
        "id": "BOKSO",
        "type": "Non-Compulsory",
        "name1": "ボクソー"
      },
      "geometry": {
        "type": "Point",
        "coordinates": [ 142.4653, 42.8053 ]
      }
    },
    {
      "type": "Feature",
      "properties": {
        "id": "BOLAL",
        "type": "Non-Compulsory",
        "name1": "ボラル"
      },
      "geometry": {
        "type": "Point",
        "coordinates": [ 135.0189, 34.3025 ]
      }
    },
    {
      "type": "Feature",
      "properties": {
        "id": "BOLED",
        "type": "Non-Compulsory",
        "name1": "ボレッド"
      },
      "geometry": {
        "type": "Point",
        "coordinates": [ 137.7467, 30.9631 ]
      }
    },
    {
      "type": "Feature",
      "properties": {
        "id": "BOLUT",
        "type": "Non-Compulsory",
        "name1": "ボルト"
      },
      "geometry": {
        "type": "Point",
        "coordinates": [ 124.7033, 28.7728 ]
      }
    },
    {
      "type": "Feature",
      "properties": {
        "id": "BONDO",
        "type": "Non-Compulsory",
        "name1": "ボンド"
      },
      "geometry": {
        "type": "Point",
        "coordinates": [ 139.9797, 35.6053 ]
      }
    },
    {
      "type": "Feature",
      "properties": {
        "id": "BONJI",
        "type": "Non-Compulsory",
        "name1": "ボンジ"
      },
      "geometry": {
        "type": "Point",
        "coordinates": [ 140.2978, 39.9869 ]
      }
    },
    {
      "type": "Feature",
      "properties": {
        "id": "BONTI",
        "type": "Non-Compulsory",
        "name1": "ボンチ"
      },
      "geometry": {
        "type": "Point",
        "coordinates": [ 138.5114, 35.5283 ]
      }
    },
    {
      "type": "Feature",
      "properties": {
        "id": "BONUS",
        "type": "Non-Compulsory",
        "name1": "ボーナス"
      },
      "geometry": {
        "type": "Point",
        "coordinates": [ 140.1194, 35.6056 ]
      }
    },
    {
      "type": "Feature",
      "properties": {
        "id": "BOOST",
        "type": "Non-Compulsory",
        "name1": "ブースト"
      },
      "geometry": {
        "type": "Point",
        "coordinates": [ 127.6367, 26.1147 ]
      }
    },
    {
      "type": "Feature",
      "properties": {
        "id": "BOSPA",
        "type": "Non-Compulsory",
        "name1": "ボスパ"
      },
      "geometry": {
        "type": "Point",
        "coordinates": [ 141.0864, 35.7992 ]
      }
    },
    {
      "type": "Feature",
      "properties": {
        "id": "BOTAN",
        "type": "Non-Compulsory",
        "name1": "ボタン"
      },
      "geometry": {
        "type": "Point",
        "coordinates": [ 133.1847, 33.4656 ]
      }
    },
    {
      "type": "Feature",
      "properties": {
        "id": "BOUZU",
        "type": "Non-Compulsory",
        "name1": "ボウズ"
      },
      "geometry": {
        "type": "Point",
        "coordinates": [ 142.5017, 43.5897 ]
      }
    },
    {
      "type": "Feature",
      "properties": {
        "id": "BRASS",
        "type": "Non-Compulsory",
        "name1": "ブラス"
      },
      "geometry": {
        "type": "Point",
        "coordinates": [ 135.3753, 34.5419 ]
      }
    },
    {
      "type": "Feature",
      "properties": {
        "id": "BRAVE",
        "type": "Non-Compulsory",
        "name1": "ブレイブ"
      },
      "geometry": {
        "type": "Point",
        "coordinates": [ 133.8925, 33.4486 ]
      }
    },
    {
      "type": "Feature",
      "properties": {
        "id": "BRENT",
        "type": "Non-Compulsory",
        "name1": "ブレント"
      },
      "geometry": {
        "type": "Point",
        "coordinates": [ 123.1828, 25.0183 ]
      }
    },
    {
      "type": "Feature",
      "properties": {
        "id": "BROOK",
        "type": "Non-Compulsory",
        "name1": "ブルック"
      },
      "geometry": {
        "type": "Point",
        "coordinates": [ 140.1775, 36.0372 ]
      }
    },
    {
      "type": "Feature",
      "properties": {
        "id": "BUDOH",
        "type": "Non-Compulsory",
        "name1": "ブドウ"
      },
      "geometry": {
        "type": "Point",
        "coordinates": [ 139.3086, 38.3997 ]
      }
    },
    {
      "type": "Feature",
      "properties": {
        "id": "BUICK",
        "type": "Non-Compulsory",
        "name1": "ビュイック"
      },
      "geometry": {
        "type": "Point",
        "coordinates": [ 128.7436, 26.0683 ]
      }
    },
    {
      "type": "Feature",
      "properties": {
        "id": "BUMER",
        "type": "Non-Compulsory",
        "name1": "ブーマー"
      },
      "geometry": {
        "type": "Point",
        "coordinates": [ 135.1058, 34.7564 ]
      }
    },
    {
      "type": "Feature",
      "properties": {
        "id": "BURTN",
        "type": "Non-Compulsory",
        "name1": "バートン"
      },
      "geometry": {
        "type": "Point",
        "coordinates": [ 139.8897, 34.4903 ]
      }
    },
    {
      "type": "Feature",
      "properties": {
        "id": "BUSYU",
        "type": "Non-Compulsory",
        "name1": "ブシュー"
      },
      "geometry": {
        "type": "Point",
        "coordinates": [ 138.7617, 35.7942 ]
      }
    },
    {
      "type": "Feature",
      "properties": {
        "id": "BYOBU",
        "type": "Non-Compulsory",
        "name1": "ビョウブ"
      },
      "geometry": {
        "type": "Point",
        "coordinates": [ 140.7372, 41.0028 ]
      }
    },
    {
      "type": "Feature",
      "properties": {
        "id": "OBAKO",
        "type": "Non-Compulsory",
        "name1": "オバコ"
      },
      "geometry": {
        "type": "Point",
        "coordinates": [ 140.0544, 40.0728 ]
      }
    },
    {
      "type": "Feature",
      "properties": {
        "id": "OBMAP",
        "type": "Non-Compulsory",
        "name1": "オブマップ"
      },
      "geometry": {
        "type": "Point",
        "coordinates": [ 139.8353, 36.3767 ]
      }
    },
    {
      "type": "Feature",
      "properties": {
        "id": "OBOKE",
        "type": "Non-Compulsory",
        "name1": "オーボケ"
      },
      "geometry": {
        "type": "Point",
        "coordinates": [ 133.9214, 34.0150 ]
      }
    },
    {
      "type": "Feature",
      "properties": {
        "id": "ODENN",
        "type": "Non-Compulsory",
        "name1": "オデン"
      },
      "geometry": {
        "type": "Point",
        "coordinates": [ 138.4211, 34.7936 ]
      }
    },
    {
      "type": "Feature",
      "properties": {
        "id": "OGAKI",
        "type": "Non-Compulsory",
        "name1": "オガキ"
      },
      "geometry": {
        "type": "Point",
        "coordinates": [ 136.6269, 35.3022 ]
      }
    },
    {
      "type": "Feature",
      "properties": {
        "id": "OGILA",
        "type": "Non-Compulsory",
        "name1": "オギラ"
      },
      "geometry": {
        "type": "Point",
        "coordinates": [ 136.5564, 34.6203 ]
      }
    },
    {
      "type": "Feature",
      "properties": {
        "id": "OGITU",
        "type": "Non-Compulsory",
        "name1": "オギツ"
      },
      "geometry": {
        "type": "Point",
        "coordinates": [ 140.6731, 36.6422 ]
      }
    },
    {
      "type": "Feature",
      "properties": {
        "id": "OGORI",
        "type": "Non-Compulsory",
        "name1": "オゴリ"
      },
      "geometry": {
        "type": "Point",
        "coordinates": [ 130.4292, 33.2778 ]
      }
    },
    {
      "type": "Feature",
      "properties": {
        "id": "OGUNI",
        "type": "Non-Compulsory",
        "name1": "オグニ"
      },
      "geometry": {
        "type": "Point",
        "coordinates": [ 130.8472, 33.2108 ]
      }
    },
    {
      "type": "Feature",
      "properties": {
        "id": "OHANA",
        "type": "Non-Compulsory",
        "name1": "オハナ"
      },
      "geometry": {
        "type": "Point",
        "coordinates": [ 137.1011, 37.4356 ]
      }
    },
    {
      "type": "Feature",
      "properties": {
        "id": "OHCHA",
        "type": "Non-Compulsory",
        "name1": "オーチャ"
      },
      "geometry": {
        "type": "Point",
        "coordinates": [ 138.4547, 34.7072 ]
      }
    },
    {
      "type": "Feature",
      "properties": {
        "id": "OHGIE",
        "type": "Non-Compulsory",
        "name1": "オギ"
      },
      "geometry": {
        "type": "Point",
        "coordinates": [ 130.1783, 33.3314 ]
      }
    },
    {
      "type": "Feature",
      "properties": {
        "id": "OHKOK",
        "type": "Non-Compulsory",
        "name1": "オーコク"
      },
      "geometry": {
        "type": "Point",
        "coordinates": [ 137.9150, 33.0061 ]
      }
    },
    {
      "type": "Feature",
      "properties": {
        "id": "OHMAR",
        "type": "Non-Compulsory",
        "name1": "オーマー"
      },
      "geometry": {
        "type": "Point",
        "coordinates": [ 140.9878, 41.3094 ]
      }
    },
    {
      "type": "Feature",
      "properties": {
        "id": "OHNNO",
        "type": "Non-Compulsory",
        "name1": "オーノ"
      },
      "geometry": {
        "type": "Point",
        "coordinates": [ 136.6342, 35.8911 ]
      }
    },
    {
      "type": "Feature",
      "properties": {
        "id": "OHRIN",
        "type": "Non-Compulsory",
        "name1": "オーリン"
      },
      "geometry": {
        "type": "Point",
        "coordinates": [ 140.8503, 40.8294 ]
      }
    },
    {
      "type": "Feature",
      "properties": {
        "id": "OHSHU",
        "type": "Non-Compulsory",
        "name1": "オウシュー"
      },
      "geometry": {
        "type": "Point",
        "coordinates": [ 141.1508, 40.4364 ]
      }
    },
    {
      "type": "Feature",
      "properties": {
        "id": "OHSYU",
        "type": "Non-Compulsory",
        "name1": "オーシュウ"
      },
      "geometry": {
        "type": "Point",
        "coordinates": [ 140.6653, 38.1564 ]
      }
    },
    {
      "type": "Feature",
      "properties": {
        "id": "OKESA",
        "type": "Non-Compulsory",
        "name1": "オケサ"
      },
      "geometry": {
        "type": "Point",
        "coordinates": [ 138.5975, 38.0375 ]
      }
    },
    {
      "type": "Feature",
      "properties": {
        "id": "OKINI",
        "type": "Non-Compulsory",
        "name1": "オーキニ"
      },
      "geometry": {
        "type": "Point",
        "coordinates": [ 135.7553, 34.8494 ]
      }
    },
    {
      "type": "Feature",
      "properties": {
        "id": "OKITU",
        "type": "Non-Compulsory",
        "name1": "オキツ"
      },
      "geometry": {
        "type": "Point",
        "coordinates": [ 133.2919, 33.0964 ]
      }
    },
    {
      "type": "Feature",
      "properties": {
        "id": "OKUJI",
        "type": "Non-Compulsory",
        "name1": "オクジ"
      },
      "geometry": {
        "type": "Point",
        "coordinates": [ 140.3500, 36.7711 ]
      }
    },
    {
      "type": "Feature",
      "properties": {
        "id": "OKUMA",
        "type": "Non-Compulsory",
        "name1": "オクマ"
      },
      "geometry": {
        "type": "Point",
        "coordinates": [ 128.0386, 26.6714 ]
      }
    },
    {
      "type": "Feature",
      "properties": {
        "id": "OKUNI",
        "type": "Non-Compulsory",
        "name1": "オークニ"
      },
      "geometry": {
        "type": "Point",
        "coordinates": [ 137.6906, 35.4036 ]
      }
    },
    {
      "type": "Feature",
      "properties": {
        "id": "OLIVE",
        "type": "Non-Compulsory",
        "name1": "オリーブ"
      },
      "geometry": {
        "type": "Point",
        "coordinates": [ 134.4500, 34.7550 ]
      }
    },
    {
      "type": "Feature",
      "properties": {
        "id": "OLKUN",
        "type": "Non-Compulsory",
        "name1": "オルクン"
      },
      "geometry": {
        "type": "Point",
        "coordinates": [ 139.9442, 38.5856 ]
      }
    },
    {
      "type": "Feature",
      "properties": {
        "id": "OLNAS",
        "type": "Non-Compulsory",
        "name1": "オルナス"
      },
      "geometry": {
        "type": "Point",
        "coordinates": [ 143.6381, 40.7525 ]
      }
    },
    {
      "type": "Feature",
      "properties": {
        "id": "OLPOL",
        "type": "Non-Compulsory",
        "name1": "オルポル"
      },
      "geometry": {
        "type": "Point",
        "coordinates": [ 141.6500, 42.8967 ]
      }
    },
    {
      "type": "Feature",
      "properties": {
        "id": "OLSAK",
        "type": "Non-Compulsory",
        "name1": "オルサック"
      },
      "geometry": {
        "type": "Point",
        "coordinates": [ 131.9239, 29.3778 ]
      }
    },
    {
      "type": "Feature",
      "properties": {
        "id": "OLSAS",
        "type": "Non-Compulsory",
        "name1": "オルサス"
      },
      "geometry": {
        "type": "Point",
        "coordinates": [ 139.9403, 34.8078 ]
      }
    },
    {
      "type": "Feature",
      "properties": {
        "id": "OLSEG",
        "type": "Non-Compulsory",
        "name1": "オルセグ"
      },
      "geometry": {
        "type": "Point",
        "coordinates": [ 141.5933, 34.8003 ]
      }
    },
    {
      "type": "Feature",
      "properties": {
        "id": "OLSER",
        "type": "Non-Compulsory",
        "name1": "オルサー"
      },
      "geometry": {
        "type": "Point",
        "coordinates": [ 129.9656, 30.3436 ]
      }
    },
    {
      "type": "Feature",
      "properties": {
        "id": "OLSOP",
        "type": "Non-Compulsory",
        "name1": "オルソップ"
      },
      "geometry": {
        "type": "Point",
        "coordinates": [ 134.7914, 35.5181 ]
      }
    },
    {
      "type": "Feature",
      "properties": {
        "id": "OLSOX",
        "type": "Non-Compulsory",
        "name1": "オルソックス"
      },
      "geometry": {
        "type": "Point",
        "coordinates": [ 141.6878, 40.6353 ]
      }
    },
    {
      "type": "Feature",
      "properties": {
        "id": "OLSUB",
        "type": "Non-Compulsory",
        "name1": "オルサブ"
      },
      "geometry": {
        "type": "Point",
        "coordinates": [ 129.9861, 33.2242 ]
      }
    },
    {
      "type": "Feature",
      "properties": {
        "id": "OLTEN",
        "type": "Non-Compulsory",
        "name1": "オルテン"
      },
      "geometry": {
        "type": "Point",
        "coordinates": [ 140.0647, 35.6925 ]
      }
    },
    {
      "type": "Feature",
      "properties": {
        "id": "OLTOM",
        "type": "Non-Compulsory",
        "name1": "オルトム"
      },
      "geometry": {
        "type": "Point",
        "coordinates": [ 137.4617, 35.0261 ]
      }
    },
    {
      "type": "Feature",
      "properties": {
        "id": "OLVAL",
        "type": "Non-Compulsory",
        "name1": "オルバル"
      },
      "geometry": {
        "type": "Point",
        "coordinates": [ 127.4114, 26.0697 ]
      }
    },
    {
      "type": "Feature",
      "properties": {
        "id": "OLVIN",
        "type": "Non-Compulsory",
        "name1": "オルビン"
      },
      "geometry": {
        "type": "Point",
        "coordinates": [ 142.1278, 33.4817 ]
      }
    },
    {
      "type": "Feature",
      "properties": {
        "id": "OMIYA",
        "type": "Non-Compulsory",
        "name1": "オーミヤ"
      },
      "geometry": {
        "type": "Point",
        "coordinates": [ 139.5975, 35.9183 ]
      }
    },
    {
      "type": "Feature",
      "properties": {
        "id": "OMOGO",
        "type": "Non-Compulsory",
        "name1": "オモゴ"
      },
      "geometry": {
        "type": "Point",
        "coordinates": [ 133.2092, 33.6803 ]
      }
    },
    {
      "type": "Feature",
      "properties": {
        "id": "OMUTA",
        "type": "Non-Compulsory",
        "name1": "オームタ"
      },
      "geometry": {
        "type": "Point",
        "coordinates": [ 130.4503, 33.0589 ]
      }
    },
    {
      "type": "Feature",
      "properties": {
        "id": "ONAGA",
        "type": "Non-Compulsory",
        "name1": "オナガ"
      },
      "geometry": {
        "type": "Point",
        "coordinates": [ 144.0900, 43.2369 ]
      }
    },
    {
      "type": "Feature",
      "properties": {
        "id": "ONASU",
        "type": "Non-Compulsory",
        "name1": "オナス"
      },
      "geometry": {
        "type": "Point",
        "coordinates": [ 140.9206, 34.8814 ]
      }
    },
    {
      "type": "Feature",
      "properties": {
        "id": "ONGHA",
        "type": "Non-Compulsory",
        "name1": "オンガ"
      },
      "geometry": {
        "type": "Point",
        "coordinates": [ 130.7867, 33.7886 ]
      }
    },
    {
      "type": "Feature",
      "properties": {
        "id": "ONMAE",
        "type": "Non-Compulsory",
        "name1": "オンマエ"
      },
      "geometry": {
        "type": "Point",
        "coordinates": [ 134.6681, 34.5719 ]
      }
    },
    {
      "type": "Feature",
      "properties": {
        "id": "ONSEN",
        "type": "Non-Compulsory",
        "name1": "オンセン"
      },
      "geometry": {
        "type": "Point",
        "coordinates": [ 141.4778, 24.8178 ]
      }
    },
    {
      "type": "Feature",
      "properties": {
        "id": "ONSKE",
        "type": "Non-Compulsory",
        "name1": "オンスケ"
      },
      "geometry": {
        "type": "Point",
        "coordinates": [ 130.6481, 30.6231 ]
      }
    },
    {
      "type": "Feature",
      "properties": {
        "id": "ONUMI",
        "type": "Non-Compulsory",
        "name1": "オヌミー"
      },
      "geometry": {
        "type": "Point",
        "coordinates": [ 144.09, 43.1136 ]
      }
    },
    {
      "type": "Feature",
      "properties": {
        "id": "OPANO",
        "type": "Non-Compulsory",
        "name1": "オパノ"
      },
      "geometry": {
        "type": "Point",
        "coordinates": [ 141.6356, 42.9794 ]
      }
    },
    {
      "type": "Feature",
      "properties": {
        "id": "OPARL",
        "type": "Non-Compulsory",
        "name1": "オパール"
      },
      "geometry": {
        "type": "Point",
        "coordinates": [ 139.8839, 35.5922 ]
      }
    },
    {
      "type": "Feature",
      "properties": {
        "id": "OPERA",
        "type": "Non-Compulsory",
        "name1": "オペラ"
      },
      "geometry": {
        "type": "Point",
        "coordinates": [ 132.7103, 35.4972 ]
      }
    },
    {
      "type": "Feature",
      "properties": {
        "id": "OPPAR",
        "type": "Non-Compulsory",
        "name1": "オッパー"
      },
      "geometry": {
        "type": "Point",
        "coordinates": [ 139.7347, 35.3711 ]
      }
    },
    {
      "type": "Feature",
      "properties": {
        "id": "ORAMO",
        "type": "Non-Compulsory",
        "name1": "オラモ"
      },
      "geometry": {
        "type": "Point",
        "coordinates": [ 131.1461, 32.5886 ]
      }
    },
    {
      "type": "Feature",
      "properties": {
        "id": "ORISU",
        "type": "Non-Compulsory",
        "name1": "オーリス"
      },
      "geometry": {
        "type": "Point",
        "coordinates": [ 141.0642, 45.4661 ]
      }
    },
    {
      "type": "Feature",
      "properties": {
        "id": "ORVIL",
        "type": "Non-Compulsory",
        "name1": "オービル"
      },
      "geometry": {
        "type": "Point",
        "coordinates": [ 136.7611, 35.0453 ]
      }
    },
    {
      "type": "Feature",
      "properties": {
        "id": "OSAMU",
        "type": "Non-Compulsory",
        "name1": "オサム"
      },
      "geometry": {
        "type": "Point",
        "coordinates": [ 135.4333, 34.3050 ]
      }
    },
    {
      "type": "Feature",
      "properties": {
        "id": "OSETO",
        "type": "Non-Compulsory",
        "name1": "オーセト"
      },
      "geometry": {
        "type": "Point",
        "coordinates": [ 129.6297, 32.8436 ]
      }
    },
    {
      "type": "Feature",
      "properties": {
        "id": "OSIRO",
        "type": "Non-Compulsory",
        "name1": "オシロ"
      },
      "geometry": {
        "type": "Point",
        "coordinates": [ 131.1869, 24.9139 ]
      }
    },
    {
      "type": "Feature",
      "properties": {
        "id": "OSROB",
        "type": "Non-Compulsory",
        "name1": "オスローブ"
      },
      "geometry": {
        "type": "Point",
        "coordinates": [ 143.3761, 42.9269 ]
      }
    },
    {
      "type": "Feature",
      "properties": {
        "id": "OSTEP",
        "type": "Non-Compulsory",
        "name1": "オステップ"
      },
      "geometry": {
        "type": "Point",
        "coordinates": [ 130.4422, 33.1422 ]
      }
    },
    {
      "type": "Feature",
      "properties": {
        "id": "OSTIG",
        "type": "Non-Compulsory",
        "name1": "オスティグ"
      },
      "geometry": {
        "type": "Point",
        "coordinates": [ 139.5722, 36.3853 ]
      }
    },
    {
      "type": "Feature",
      "properties": {
        "id": "OSUZU",
        "type": "Non-Compulsory",
        "name1": "オスズ"
      },
      "geometry": {
        "type": "Point",
        "coordinates": [ 131.8825, 32.3436 ]
      }
    },
    {
      "type": "Feature",
      "properties": {
        "id": "OTAKI",
        "type": "Non-Compulsory",
        "name1": "オタキ"
      },
      "geometry": {
        "type": "Point",
        "coordinates": [ 141.2567, 34.7767 ]
      }
    },
    {
      "type": "Feature",
      "properties": {
        "id": "OTKEV",
        "type": "Non-Compulsory",
        "name1": "オトケブ"
      },
      "geometry": {
        "type": "Point",
        "coordinates": [ 134.7050, 34.1036 ]
      }
    },
    {
      "type": "Feature",
      "properties": {
        "id": "OTOWA",
        "type": "Non-Compulsory",
        "name1": "オトワ"
      },
      "geometry": {
        "type": "Point",
        "coordinates": [ 135.8814, 33.2486 ]
      }
    },
    {
      "type": "Feature",
      "properties": {
        "id": "OVSID",
        "type": "Non-Compulsory",
        "name1": "オブシッド"
      },
      "geometry": {
        "type": "Point",
        "coordinates": [ 130.6619, 31.9553 ]
      }
    },
    {
      "type": "Feature",
      "properties": {
        "id": "OWARI",
        "type": "Non-Compulsory",
        "name1": "オワリ"
      },
      "geometry": {
        "type": "Point",
        "coordinates": [ 136.9828, 35.3517 ]
      }
    },
    {
      "type": "Feature",
      "properties": {
        "id": "OYABE",
        "type": "Non-Compulsory",
        "name1": "オヤベ"
      },
      "geometry": {
        "type": "Point",
        "coordinates": [ 136.7536, 36.6050 ]
      }
    },
    {
      "type": "Feature",
      "properties": {
        "id": "OYODO",
        "type": "Non-Compulsory",
        "name1": "オーヨド"
      },
      "geometry": {
        "type": "Point",
        "coordinates": [ 131.6922, 31.8947 ]
      }
    },
    {
      "type": "Feature",
      "properties": {
        "id": "OZORA",
        "type": "Non-Compulsory",
        "name1": "オーゾラ"
      },
      "geometry": {
        "type": "Point",
        "coordinates": [ 144.1981, 43.4856 ]
      }
    }
  ]
}
