{
  "type": "FeatureCollection",
  "crs": {
    "type": "name",
    "properties": {
      "name": "urn:ogc:def:crs:OGC:1.3:CRS84"
    }
  },
  "features": [
    {
      "type": "Feature",
      "properties": {
        "id": "ADGOR",
        "type": "Compulsory",
        "name1": "アドゴル"
      },
      "geometry": {
        "type": "Point",
        "coordinates": [
          149.6508,
          40.4247
        ]
      }
    },
    {
      "type": "Feature",
      "properties": {
        "id": "ADKAK",
        "type": "Compulsory",
        "name1": "アドカック"
      },
      "geometry": {
        "type": "Point",
        "coordinates": [
          142.1633,
          33.9036
        ]
      }
    },
    {
      "type": "Feature",
      "properties": {
        "id": "ADNAP",
        "type": "Compulsory",
        "name1": "アドナップ"
      },
      "geometry": {
        "type": "Point",
        "coordinates": [
          145.6664,
          37.1975
        ]
      }
    },
    {
      "type": "Feature",
      "properties": {
        "id": "AGEDI",
        "type": "Compulsory",
        "name1": "アゲディ"
      },
      "geometry": {
        "type": "Point",
        "coordinates": [
          140.6008,
          36.4547
        ]
      }
    },
    {
      "type": "Feature",
      "properties": {
        "id": "AKISU",
        "type": "Compulsory",
        "name1": "アキス"
      },
      "geometry": {
        "type": "Point",
        "coordinates": [
          161.3333,
          47.5508
        ]
      }
    },
    {
      "type": "Feature",
      "properties": {
        "id": "AKSUN",
        "type": "Compulsory",
        "name1": "アクスン"
      },
      "geometry": {
        "type": "Point",
        "coordinates": [
          140.9044,
          45.7522
        ]
      }
    },
    {
      "type": "Feature",
      "properties": {
        "id": "ANDOL",
        "type": "Compulsory",
        "name1": "アンドル"
      },
      "geometry": {
        "type": "Point",
        "coordinates": [
          133,
          37.6661
        ]
      }
    },
    {
      "type": "Feature",
      "properties": {
        "id": "ANIMO",
        "type": "Compulsory",
        "name1": "アニモ"
      },
      "geometry": {
        "type": "Point",
        "coordinates": [
          143.6792,
          45.1989
        ]
      }
    },
    {
      "type": "Feature",
      "properties": {
        "id": "AOMORI",
        "type": "Compulsory",
        "name1": "アオモリ"
      },
      "geometry": {
        "type": "Point",
        "coordinates": [
          140.7053,
          40.7389
        ]
      }
    },
    {
      "type": "Feature",
      "properties": {
        "id": "APELA",
        "type": "Compulsory",
        "name1": "アペラ"
      },
      "geometry": {
        "type": "Point",
        "coordinates": [
          129.2333,
          34.7231
        ]
      }
    },
    {
      "type": "Feature",
      "properties": {
        "id": "ASEDA",
        "type": "Compulsory",
        "name1": "アセダ"
      },
      "geometry": {
        "type": "Point",
        "coordinates": [
          139.1589,
          25.0044
        ]
      }
    },
    {
      "type": "Feature",
      "properties": {
        "id": "ASTER",
        "type": "Compulsory",
        "name1": "アスター"
      },
      "geometry": {
        "type": "Point",
        "coordinates": [
          142.5331,
          39.2311
        ]
      }
    },
    {
      "type": "Feature",
      "properties": {
        "id": "ATIGO",
        "type": "Compulsory",
        "name1": "アティゴ"
      },
      "geometry": {
        "type": "Point",
        "coordinates": [
          150.3167,
          21
        ]
      }
    },
    {
      "type": "Feature",
      "properties": {
        "id": "ATOTI",
        "type": "Compulsory",
        "name1": "アトッチ"
      },
      "geometry": {
        "type": "Point",
        "coordinates": [
          125.1983,
          30.0036
        ]
      }
    },
    {
      "type": "Feature",
      "properties": {
        "id": "AVBET",
        "type": "Compulsory",
        "name1": "アベット"
      },
      "geometry": {
        "type": "Point",
        "coordinates": [
          145.4667,
          36.1422
        ]
      }
    },
    {
      "type": "Feature",
      "properties": {
        "id": "AVGOK",
        "type": "Compulsory",
        "name1": "アブゴック"
      },
      "geometry": {
        "type": "Point",
        "coordinates": [
          138.2464,
          43.6022
        ]
      }
    },
    {
      "type": "Feature",
      "properties": {
        "id": "AVLAS",
        "type": "Compulsory",
        "name1": "アブラス"
      },
      "geometry": {
        "type": "Point",
        "coordinates": [
          130.1208,
          24.3556
        ]
      }
    },
    {
      "type": "Feature",
      "properties": {
        "id": "AMITY",
        "type": "Non-Compulsory",
        "name1": "アミティ"
      },
      "geometry": {
        "type": "Point",
        "coordinates": [
          140.2575,
          35.9717
        ]
      }
    },
    {
      "type": "Feature",
      "properties": {
        "id": "AMMON",
        "type": "Non-Compulsory",
        "name1": "アモン"
      },
      "geometry": {
        "type": "Point",
        "coordinates": [
          130.6144,
          31.1786
        ]
      }
    },
    {
      "type": "Feature",
      "properties": {
        "id": "ANCOU",
        "type": "Non-Compulsory",
        "name1": "アンコウ"
      },
      "geometry": {
        "type": "Point",
        "coordinates": [
          139.67,
          38.8008
        ]
      }
    },
    {
      "type": "Feature",
      "properties": {
        "id": "ANJYO",
        "type": "Non-Compulsory",
        "name1": "アンジョー"
      },
      "geometry": {
        "type": "Point",
        "coordinates": [
          137.1025,
          34.9997
        ]
      }
    },
    {
      "type": "Feature",
      "properties": {
        "id": "ANKOH",
        "type": "Non-Compulsory",
        "name1": "アンコー"
      },
      "geometry": {
        "type": "Point",
        "coordinates": [
          140.8858,
          36.2442
        ]
      }
    },
    {
      "type": "Feature",
      "properties": {
        "id": "ANNIE",
        "type": "Non-Compulsory",
        "name1": "アニー"
      },
      "geometry": {
        "type": "Point",
        "coordinates": [
          125.0167,
          25.3106
        ]
      }
    },
    {
      "type": "Feature",
      "properties": {
        "id": "ANOXA",
        "type": "Non-Compulsory",
        "name1": "アノクサ"
      },
      "geometry": {
        "type": "Point",
        "coordinates": [
          129.3769,
          28.9889
        ]
      }
    },
    {
      "type": "Feature",
      "properties": {
        "id": "ANPAL",
        "type": "Non-Compulsory",
        "name1": "アンパル"
      },
      "geometry": {
        "type": "Point",
        "coordinates": [
          124.1989,
          24.3153
        ]
      }
    },
    {
      "type": "Feature",
      "properties": {
        "id": "ANPAN",
        "type": "Non-Compulsory",
        "name1": "アンパン"
      },
      "geometry": {
        "type": "Point",
        "coordinates": [
          133.8469,
          33.4189
        ]
      }
    },
    {
      "type": "Feature",
      "properties": {
        "id": "ANPEP",
        "type": "Non-Compulsory",
        "name1": "アンペップ"
      },
      "geometry": {
        "type": "Point",
        "coordinates": [
          131.6844,
          34.7033
        ]
      }
    },
    {
      "type": "Feature",
      "properties": {
        "id": "ANREM",
        "type": "Non-Compulsory",
        "name1": "アンレム"
      },
      "geometry": {
        "type": "Point",
        "coordinates": [
          130.8347,
          30.3425
        ]
      }
    },
    {
      "type": "Feature",
      "properties": {
        "id": "ANROX",
        "type": "Non-Compulsory",
        "name1": "アンロックス"
      },
      "geometry": {
        "type": "Point",
        "coordinates": [
          136.9603,
          34.655
        ]
      }
    },
    {
      "type": "Feature",
      "properties": {
        "id": "AOBAR",
        "type": "Non-Compulsory",
        "name1": "アオバ"
      },
      "geometry": {
        "type": "Point",
        "coordinates": [
          141.1231,
          38.0172
        ]
      }
    },
    {
      "type": "Feature",
      "properties": {
        "id": "AOIKE",
        "type": "Non-Compulsory",
        "name1": "アオイケ"
      },
      "geometry": {
        "type": "Point",
        "coordinates": [
          142.5369,
          43.5364
        ]
      }
    },
    {
      "type": "Feature",
      "properties": {
        "id": "AONII",
        "type": "Non-Compulsory",
        "name1": "アオニー"
      },
      "geometry": {
        "type": "Point",
        "coordinates": [
          133.9606,
          34.8003
        ]
      }
    },
    {
      "type": "Feature",
      "properties": {
        "id": "APITO",
        "type": "Non-Compulsory",
        "name1": "アピト"
      },
      "geometry": {
        "type": "Point",
        "coordinates": [
          124,
          29.5833
        ]
      }
    },
    {
      "type": "Feature",
      "properties": {
        "id": "APOLO",
        "type": "Non-Compulsory",
        "name1": "アポロ"
      },
      "geometry": {
        "type": "Point",
        "coordinates": [
          139.9375,
          35.3219
        ]
      }
    },
    {
      "type": "Feature",
      "properties": {
        "id": "ARAOH",
        "type": "Non-Compulsory",
        "name1": "アラオ"
      },
      "geometry": {
        "type": "Point",
        "coordinates": [
          130.5231,
          33.0172
        ]
      }
    },
    {
      "type": "Feature",
      "properties": {
        "id": "ARAPA",
        "type": "Non-Compulsory",
        "name1": "アラパ"
      },
      "geometry": {
        "type": "Point",
        "coordinates": [
          141.6906,
          42.6694
        ]
      }
    },
    {
      "type": "Feature",
      "properties": {
        "id": "AREPO",
        "type": "Non-Compulsory",
        "name1": "アレッポ"
      },
      "geometry": {
        "type": "Point",
        "coordinates": [
          143.8167,
          41.4936
        ]
      }
    },
    {
      "type": "Feature",
      "properties": {
        "id": "ARIES",
        "type": "Non-Compulsory",
        "name1": "アリーズ"
      },
      "geometry": {
        "type": "Point",
        "coordinates": [
          140.2517,
          35.9356
        ]
      }
    },
    {
      "type": "Feature",
      "properties": {
        "id": "ARIMA",
        "type": "Non-Compulsory",
        "name1": "アリマ"
      },
      "geometry": {
        "type": "Point",
        "coordinates": [
          135.1058,
          34.7564
        ]
      }
    },
    {
      "type": "Feature",
      "properties": {
        "id": "ARLON",
        "type": "Non-Compulsory",
        "name1": "アーロン"
      },
      "geometry": {
        "type": "Point",
        "coordinates": [
          139.9831,
          35.2569
        ]
      }
    },
    {
      "type": "Feature",
      "properties": {
        "id": "ARSAR",
        "type": "Non-Compulsory",
        "name1": "アーサー"
      },
      "geometry": {
        "type": "Point",
        "coordinates": [
          131.2422,
          34.0922
        ]
      }
    },
    {
      "type": "Feature",
      "properties": {
        "id": "ASAGI",
        "type": "Non-Compulsory",
        "name1": "アサギ"
      },
      "geometry": {
        "type": "Point",
        "coordinates": [
          134.7506,
          35.0436
        ]
      }
    },
    {
      "type": "Feature",
      "properties": {
        "id": "ASAHIKAWA",
        "type": "Non-Compulsory",
        "name1": "アサヒカワ"
      },
      "geometry": {
        "type": "Point",
        "coordinates": [
          142.455,
          43.6672
        ]
      }
    },
    {
      "type": "Feature",
      "properties": {
        "id": "ASAJI",
        "type": "Non-Compulsory",
        "name1": "アサジ"
      },
      "geometry": {
        "type": "Point",
        "coordinates": [
          133.1456,
          36.1153
        ]
      }
    },
    {
      "type": "Feature",
      "properties": {
        "id": "ASAMA",
        "type": "Non-Compulsory",
        "name1": "アサマ"
      },
      "geometry": {
        "type": "Point",
        "coordinates": [
          131.1406,
          32.8631
        ]
      }
    },
    {
      "type": "Feature",
      "properties": {
        "id": "ASARI",
        "type": "Non-Compulsory",
        "name1": "アサリ"
      },
      "geometry": {
        "type": "Point",
        "coordinates": [
          131.2144,
          33.8942
        ]
      }
    },
    {
      "type": "Feature",
      "properties": {
        "id": "ASATO",
        "type": "Non-Compulsory",
        "name1": "アサト"
      },
      "geometry": {
        "type": "Point",
        "coordinates": [
          128.5042,
          27.1817
        ]
      }
    },
    {
      "type": "Feature",
      "properties": {
        "id": "ASEKI",
        "type": "Non-Compulsory",
        "name1": "アセキ"
      },
      "geometry": {
        "type": "Point",
        "coordinates": [
          140.0206,
          36.0853
        ]
      }
    },
    {
      "type": "Feature",
      "properties": {
        "id": "ASIBE",
        "type": "Non-Compulsory",
        "name1": "アシベ"
      },
      "geometry": {
        "type": "Point",
        "coordinates": [
          142.2836,
          43.4511
        ]
      }
    },
    {
      "type": "Feature",
      "properties": {
        "id": "ASIMO",
        "type": "Non-Compulsory",
        "name1": "アシモ"
      },
      "geometry": {
        "type": "Point",
        "coordinates": [
          140.3478,
          34.6883
        ]
      }
    },
    {
      "type": "Feature",
      "properties": {
        "id": "ASONO",
        "type": "Non-Compulsory",
        "name1": "アソノ"
      },
      "geometry": {
        "type": "Point",
        "coordinates": [
          131.2469,
          33.0161
        ]
      }
    },
    {
      "type": "Feature",
      "properties": {
        "id": "ASPEL",
        "type": "Non-Compulsory",
        "name1": "アスペル"
      },
      "geometry": {
        "type": "Point",
        "coordinates": [
          131.1617,
          33.8786
        ]
      }
    },
    {
      "type": "Feature",
      "properties": {
        "id": "ASUDA",
        "type": "Non-Compulsory",
        "name1": "アサダ"
      },
      "geometry": {
        "type": "Point",
        "coordinates": [
          141.5769,
          40.5936
        ]
      }
    },
    {
      "type": "Feature",
      "properties": {
        "id": "ASUKA",
        "type": "Non-Compulsory",
        "name1": "アスカ"
      },
      "geometry": {
        "type": "Point",
        "coordinates": [
          135.7611,
          34.7675
        ]
      }
    },
    {
      "type": "Feature",
      "properties": {
        "id": "ATAMI",
        "type": "Non-Compulsory",
        "name1": "アタミ"
      },
      "geometry": {
        "type": "Point",
        "coordinates": [
          139.2678,
          34.9469
        ]
      }
    },
    {
      "type": "Feature",
      "properties": {
        "id": "ATERA",
        "type": "Non-Compulsory",
        "name1": "アテラ"
      },
      "geometry": {
        "type": "Point",
        "coordinates": [
          140.2942,
          38.265
        ]
      }
    },
    {
      "type": "Feature",
      "properties": {
        "id": "ATLER",
        "type": "Non-Compulsory",
        "name1": "アトラー"
      },
      "geometry": {
        "type": "Point",
        "coordinates": [
          130.7561,
          33.7225
        ]
      }
    },
    {
      "type": "Feature",
      "properties": {
        "id": "ATMIK",
        "type": "Non-Compulsory",
        "name1": "アトミック"
      },
      "geometry": {
        "type": "Point",
        "coordinates": [
          133.6867,
          35.4206
        ]
      }
    },
    {
      "type": "Feature",
      "properties": {
        "id": "ATUMI",
        "type": "Non-Compulsory",
        "name1": "アツミ"
      },
      "geometry": {
        "type": "Point",
        "coordinates": [
          139.4058,
          38.6369
        ]
      }
    },
    {
      "type": "Feature",
      "properties": {
        "id": "AVBEK",
        "type": "Non-Compulsory",
        "name1": "アヴベック"
      },
      "geometry": {
        "type": "Point",
        "coordinates": [
          131.0181,
          33.9294
        ]
      }
    },
    {
      "type": "Feature",
      "properties": {
        "id": "AWARA",
        "type": "Non-Compulsory",
        "name1": "アワラ"
      },
      "geometry": {
        "type": "Point",
        "coordinates": [
          136.0964,
          36.2997
        ]
      }
    },
    {
      "type": "Feature",
      "properties": {
        "id": "AWASI",
        "type": "Non-Compulsory",
        "name1": "アワシ"
      },
      "geometry": {
        "type": "Point",
        "coordinates": [
          140.9331,
          38.4056
        ]
      }
    },
    {
      "type": "Feature",
      "properties": {
        "id": "AXIZU",
        "type": "Non-Compulsory",
        "name1": "アクシズ"
      },
      "geometry": {
        "type": "Point",
        "coordinates": [
          139.8217,
          35.4858
        ]
      }
    },
    {
      "type": "Feature",
      "properties": {
        "id": "AYAGU",
        "type": "Non-Compulsory",
        "name1": "アヤグ"
      },
      "geometry": {
        "type": "Point",
        "coordinates": [
          125.1203,
          24.9169
        ]
      }
    },
    {
      "type": "Feature",
      "properties": {
        "id": "AYAKA",
        "type": "Non-Compulsory",
        "name1": "アヤカ"
      },
      "geometry": {
        "type": "Point",
        "coordinates": [
          123.5919,
          24.4042
        ]
      }
    },
    {
      "type": "Feature",
      "properties": {
        "id": "AYANO",
        "type": "Non-Compulsory",
        "name1": "アヤノ"
      },
      "geometry": {
        "type": "Point",
        "coordinates": [
          136.3936,
          34.0961
        ]
      }
    },
    {
      "type": "Feature",
      "properties": {
        "id": "AYAYA",
        "type": "Non-Compulsory",
        "name1": "アヤヤ"
      },
      "geometry": {
        "type": "Point",
        "coordinates": [
          134.5383,
          34.7553
        ]
      }
    },
    {
      "type": "Feature",
      "properties": {
        "id": "AZUKI",
        "type": "Non-Compulsory",
        "name1": "アズキ"
      },
      "geometry": {
        "type": "Point",
        "coordinates": [
          130.8961,
          32.4019
        ]
      }
    },
    {
      "type": "Feature",
      "properties": {
        "id": "AZUMI",
        "type": "Non-Compulsory",
        "name1": "アズミ"
      },
      "geometry": {
        "type": "Point",
        "coordinates": [
          137.9092,
          36.4806
        ]
      }
    },
    {
      "type": "Feature",
      "properties": {
        "id": "AZURE",
        "type": "Non-Compulsory",
        "name1": "アズール"
      },
      "geometry": {
        "type": "Point",
        "coordinates": [
          139.8311,
          35.4725
        ]
      }
    },
    {
      "type": "Feature",
      "properties": {
        "id": "BEEBO",
        "type": "Compulsory",
        "name1": "ビーボ"
      },
      "geometry": {
        "type": "Point",
        "coordinates": [
          153.1906,
          22.4078
        ]
      }
    },
    {
      "type": "Feature",
      "properties": {
        "id": "BISIG",
        "type": "Compulsory",
        "name1": "ビシック"
      },
      "geometry": {
        "type": "Point",
        "coordinates": [
          125.2667,
          21
        ]
      }
    },
    {
      "type": "Feature",
      "properties": {
        "id": "BISIV",
        "type": "Compulsory",
        "name1": "ビシブ"
      },
      "geometry": {
        "type": "Point",
        "coordinates": [
          144.2828,
          44.9919
        ]
      }
    },
    {
      "type": "Feature",
      "properties": {
        "id": "BIXAK",
        "type": "Compulsory",
        "name1": "ビクサック"
      },
      "geometry": {
        "type": "Point",
        "coordinates": [
          133.1375,
          27.8806
        ]
      }
    },
    {
      "type": "Feature",
      "properties": {
        "id": "BOMAP",
        "type": "Compulsory",
        "name1": "ボーマップ"
      },
      "geometry": {
        "type": "Point",
        "coordinates": [
          129.8244,
          30.0036
        ]
      }
    },
    {
      "type": "Feature",
      "properties": {
        "id": "BORDO",
        "type": "Compulsory",
        "name1": "ボルド"
      },
      "geometry": {
        "type": "Point",
        "coordinates": [
          124,
          26.0167
        ]
      }
    },
    {
      "type": "Feature",
      "properties": {
        "id": "BUBDO",
        "type": "Compulsory",
        "name1": "ブブド"
      },
      "geometry": {
        "type": "Point",
        "coordinates": [
          136.6539,
          31.4319
        ]
      }
    },
    {
      "type": "Feature",
      "properties": {
        "id": "BULAN",
        "type": "Compulsory",
        "name1": "ブラン"
      },
      "geometry": {
        "type": "Point",
        "coordinates": [
          124,
          27.0917
        ]
      }
    },
    {
      "type": "Feature",
      "properties": {
        "id": "BAARU",
        "type": "Non-Compulsory",
        "name1": "バール"
      },
      "geometry": {
        "type": "Point",
        "coordinates": [
          132.4653,
          35.2514
        ]
      }
    },
    {
      "type": "Feature",
      "properties": {
        "id": "BAHAN",
        "type": "Non-Compulsory",
        "name1": "バハン"
      },
      "geometry": {
        "type": "Point",
        "coordinates": [
          128.7992,
          32.5786
        ]
      }
    },
    {
      "type": "Feature",
      "properties": {
        "id": "BAIEN",
        "type": "Non-Compulsory",
        "name1": "バイエン"
      },
      "geometry": {
        "type": "Point",
        "coordinates": [
          131.8497,
          33.6222
        ]
      }
    },
    {
      "type": "Feature",
      "properties": {
        "id": "BAJYO",
        "type": "Non-Compulsory",
        "name1": "バジョー"
      },
      "geometry": {
        "type": "Point",
        "coordinates": [
          139.1922,
          37.9486
        ]
      }
    },
    {
      "type": "Feature",
      "properties": {
        "id": "BALAN",
        "type": "Non-Compulsory",
        "name1": "バラン"
      },
      "geometry": {
        "type": "Point",
        "coordinates": [
          139.9911,
          35.605
        ]
      }
    },
    {
      "type": "Feature",
      "properties": {
        "id": "BALAS",
        "type": "Non-Compulsory",
        "name1": "バラス"
      },
      "geometry": {
        "type": "Point",
        "coordinates": [
          124.1792,
          24.3128
        ]
      }
    },
    {
      "type": "Feature",
      "properties": {
        "id": "BAMBI",
        "type": "Non-Compulsory",
        "name1": "バンビ"
      },
      "geometry": {
        "type": "Point",
        "coordinates": [
          141.7358,
          42.5164
        ]
      }
    },
    {
      "type": "Feature",
      "properties": {
        "id": "BAMBO",
        "type": "Non-Compulsory",
        "name1": "バンブ"
      },
      "geometry": {
        "type": "Point",
        "coordinates": [
          132.8839,
          34.3133
        ]
      }
    },
    {
      "type": "Feature",
      "properties": {
        "id": "BANBA",
        "type": "Non-Compulsory",
        "name1": "バンバ"
      },
      "geometry": {
        "type": "Point",
        "coordinates": [
          143.2511,
          42.6536
        ]
      }
    },
    {
      "type": "Feature",
      "properties": {
        "id": "BANDO",
        "type": "Non-Compulsory",
        "name1": "バンドウ"
      },
      "geometry": {
        "type": "Point",
        "coordinates": [
          140.0069,
          35.9889
        ]
      }
    },
    {
      "type": "Feature",
      "properties": {
        "id": "BANNA",
        "type": "Non-Compulsory",
        "name1": "バンナ"
      },
      "geometry": {
        "type": "Point",
        "coordinates": [
          124.0694,
          24.4964
        ]
      }
    },
    {
      "type": "Feature",
      "properties": {
        "id": "BARBA",
        "type": "Non-Compulsory",
        "name1": "バーバ"
      },
      "geometry": {
        "type": "Point",
        "coordinates": [
          131.2142,
          32.8814
        ]
      }
    },
    {
      "type": "Feature",
      "properties": {
        "id": "BASHO",
        "type": "Non-Compulsory",
        "name1": "バショウ"
      },
      "geometry": {
        "type": "Point",
        "coordinates": [
          128.8442,
          27.0658
        ]
      }
    },
    {
      "type": "Feature",
      "properties": {
        "id": "BASIN",
        "type": "Non-Compulsory",
        "name1": "ベイシン"
      },
      "geometry": {
        "type": "Point",
        "coordinates": [
          138.9419,
          38.1211
        ]
      }
    },
    {
      "type": "Feature",
      "properties": {
        "id": "BATTL",
        "type": "Non-Compulsory",
        "name1": "バトル"
      },
      "geometry": {
        "type": "Point",
        "coordinates": [
          141.6667,
          41.0553
        ]
      }
    },
    {
      "type": "Feature",
      "properties": {
        "id": "BEAST",
        "type": "Non-Compulsory",
        "name1": "ビースト"
      },
      "geometry": {
        "type": "Point",
        "coordinates": [
          140.1431,
          35.6056
        ]
      }
    },
    {
      "type": "Feature",
      "properties": {
        "id": "BEBIL",
        "type": "Non-Compulsory",
        "name1": "ベビル"
      },
      "geometry": {
        "type": "Point",
        "coordinates": [
          135.3144,
          34.5011
        ]
      }
    },
    {
      "type": "Feature",
      "properties": {
        "id": "BECKY",
        "type": "Non-Compulsory",
        "name1": "ベッキー"
      },
      "geometry": {
        "type": "Point",
        "coordinates": [
          134.5086,
          33.9192
        ]
      }
    },
    {
      "type": "Feature",
      "properties": {
        "id": "BEEBA",
        "type": "Non-Compulsory",
        "name1": "ビーバ"
      },
      "geometry": {
        "type": "Point",
        "coordinates": [
          141.7164,
          43.3519
        ]
      }
    },
    {
      "type": "Feature",
      "properties": {
        "id": "BEETL",
        "type": "Non-Compulsory",
        "name1": "ビートル"
      },
      "geometry": {
        "type": "Point",
        "coordinates": [
          129.8292,
          34.2625
        ]
      }
    },
    {
      "type": "Feature",
      "properties": {
        "id": "BEGAD",
        "type": "Non-Compulsory",
        "name1": "ベガッド"
      },
      "geometry": {
        "type": "Point",
        "coordinates": [
          143.2467,
          33.3869
        ]
      }
    },
    {
      "type": "Feature",
      "properties": {
        "id": "BEIGE",
        "type": "Non-Compulsory",
        "name1": "ベージュ"
      },
      "geometry": {
        "type": "Point",
        "coordinates": [
          135.3631,
          34.5339
        ]
      }
    },
    {
      "type": "Feature",
      "properties": {
        "id": "BEKEN",
        "type": "Non-Compulsory",
        "name1": "ベケン"
      },
      "geometry": {
        "type": "Point",
        "coordinates": [
          142.0617,
          38.0058
        ]
      }
    },
    {
      "type": "Feature",
      "properties": {
        "id": "BENES",
        "type": "Non-Compulsory",
        "name1": "ベネス"
      },
      "geometry": {
        "type": "Point",
        "coordinates": [
          134.1553,
          34.8344
        ]
      }
    },
    {
      "type": "Feature",
      "properties": {
        "id": "BERRY",
        "type": "Non-Compulsory",
        "name1": "ベリー"
      },
      "geometry": {
        "type": "Point",
        "coordinates": [
          134.9422,
          34.2506
        ]
      }
    },
    {
      "type": "Feature",
      "properties": {
        "id": "BERTH",
        "type": "Non-Compulsory",
        "name1": "バース"
      },
      "geometry": {
        "type": "Point",
        "coordinates": [
          134.3167,
          34.1531
        ]
      }
    },
    {
      "type": "Feature",
      "properties": {
        "id": "BETTY",
        "type": "Non-Compulsory",
        "name1": "ベティー"
      },
      "geometry": {
        "type": "Point",
        "coordinates": [
          125.3011,
          24.2056
        ]
      }
    },
    {
      "type": "Feature",
      "properties": {
        "id": "BIGIT",
        "type": "Non-Compulsory",
        "name1": "ビギット"
      },
      "geometry": {
        "type": "Point",
        "coordinates": [
          127.1206,
          32.0392
        ]
      }
    },
    {
      "type": "Feature",
      "properties": {
        "id": "BINGO",
        "type": "Non-Compulsory",
        "name1": "ビンゴ"
      },
      "geometry": {
        "type": "Point",
        "coordinates": [
          133.1781,
          34.4072
        ]
      }
    },
    {
      "type": "Feature",
      "properties": {
        "id": "BINKS",
        "type": "Non-Compulsory",
        "name1": "ビンクス"
      },
      "geometry": {
        "type": "Point",
        "coordinates": [
          140.7325,
          35.1878
        ]
      }
    },
    {
      "type": "Feature",
      "properties": {
        "id": "BIRDY",
        "type": "Non-Compulsory",
        "name1": "バーディー"
      },
      "geometry": {
        "type": "Point",
        "coordinates": [
          140.3122,
          35.8769
        ]
      }
    },
    {
      "type": "Feature",
      "properties": {
        "id": "BISEI",
        "type": "Non-Compulsory",
        "name1": "ビセイ"
      },
      "geometry": {
        "type": "Point",
        "coordinates": [
          142.9289,
          42.8653
        ]
      }
    },
    {
      "type": "Feature",
      "properties": {
        "id": "BITEP",
        "type": "Non-Compulsory",
        "name1": "ビテップ"
      },
      "geometry": {
        "type": "Point",
        "coordinates": [
          136.9636,
          34.5633
        ]
      }
    },
    {
      "type": "Feature",
      "properties": {
        "id": "BIWWA",
        "type": "Non-Compulsory",
        "name1": "ビワ"
      },
      "geometry": {
        "type": "Point",
        "coordinates": [
          136.2561,
          35.1161
        ]
      }
    },
    {
      "type": "Feature",
      "properties": {
        "id": "BLISS",
        "type": "Non-Compulsory",
        "name1": "ブリス"
      },
      "geometry": {
        "type": "Point",
        "coordinates": [
          127.6397,
          26.0469
        ]
      }
    },
    {
      "type": "Feature",
      "properties": {
        "id": "BLUES",
        "type": "Non-Compulsory",
        "name1": "ブルース"
      },
      "geometry": {
        "type": "Point",
        "coordinates": [
          130.3817,
          34.8664
        ]
      }
    },
    {
      "type": "Feature",
      "properties": {
        "id": "BNCHO",
        "type": "Non-Compulsory",
        "name1": "ブンチョウ"
      },
      "geometry": {
        "type": "Point",
        "coordinates": [
          141.2719,
          38.0933
        ]
      }
    },
    {
      "type": "Feature",
      "properties": {
        "id": "BOKSO",
        "type": "Non-Compulsory",
        "name1": "ボクソー"
      },
      "geometry": {
        "type": "Point",
        "coordinates": [
          142.4653,
          42.8053
        ]
      }
    },
    {
      "type": "Feature",
      "properties": {
        "id": "BOLAL",
        "type": "Non-Compulsory",
        "name1": "ボラル"
      },
      "geometry": {
        "type": "Point",
        "coordinates": [
          135.0189,
          34.3025
        ]
      }
    },
    {
      "type": "Feature",
      "properties": {
        "id": "BOLED",
        "type": "Non-Compulsory",
        "name1": "ボレッド"
      },
      "geometry": {
        "type": "Point",
        "coordinates": [
          137.7467,
          30.9631
        ]
      }
    },
    {
      "type": "Feature",
      "properties": {
        "id": "BOLUT",
        "type": "Non-Compulsory",
        "name1": "ボルト"
      },
      "geometry": {
        "type": "Point",
        "coordinates": [
          124.7033,
          28.7728
        ]
      }
    },
    {
      "type": "Feature",
      "properties": {
        "id": "BONDO",
        "type": "Non-Compulsory",
        "name1": "ボンド"
      },
      "geometry": {
        "type": "Point",
        "coordinates": [
          139.9797,
          35.6053
        ]
      }
    },
    {
      "type": "Feature",
      "properties": {
        "id": "BONJI",
        "type": "Non-Compulsory",
        "name1": "ボンジ"
      },
      "geometry": {
        "type": "Point",
        "coordinates": [
          140.2978,
          39.9869
        ]
      }
    },
    {
      "type": "Feature",
      "properties": {
        "id": "BONTI",
        "type": "Non-Compulsory",
        "name1": "ボンチ"
      },
      "geometry": {
        "type": "Point",
        "coordinates": [
          138.5114,
          35.5283
        ]
      }
    },
    {
      "type": "Feature",
      "properties": {
        "id": "BONUS",
        "type": "Non-Compulsory",
        "name1": "ボーナス"
      },
      "geometry": {
        "type": "Point",
        "coordinates": [
          140.1194,
          35.6056
        ]
      }
    },
    {
      "type": "Feature",
      "properties": {
        "id": "BOOST",
        "type": "Non-Compulsory",
        "name1": "ブースト"
      },
      "geometry": {
        "type": "Point",
        "coordinates": [
          127.6367,
          26.1147
        ]
      }
    },
    {
      "type": "Feature",
      "properties": {
        "id": "BOSPA",
        "type": "Non-Compulsory",
        "name1": "ボスパ"
      },
      "geometry": {
        "type": "Point",
        "coordinates": [
          141.0864,
          35.7992
        ]
      }
    },
    {
      "type": "Feature",
      "properties": {
        "id": "BOTAN",
        "type": "Non-Compulsory",
        "name1": "ボタン"
      },
      "geometry": {
        "type": "Point",
        "coordinates": [
          133.1847,
          33.4656
        ]
      }
    },
    {
      "type": "Feature",
      "properties": {
        "id": "BOUZU",
        "type": "Non-Compulsory",
        "name1": "ボウズ"
      },
      "geometry": {
        "type": "Point",
        "coordinates": [
          142.5017,
          43.5897
        ]
      }
    },
    {
      "type": "Feature",
      "properties": {
        "id": "BRASS",
        "type": "Non-Compulsory",
        "name1": "ブラス"
      },
      "geometry": {
        "type": "Point",
        "coordinates": [
          135.3753,
          34.5419
        ]
      }
    },
    {
      "type": "Feature",
      "properties": {
        "id": "BRAVE",
        "type": "Non-Compulsory",
        "name1": "ブレイブ"
      },
      "geometry": {
        "type": "Point",
        "coordinates": [
          133.8925,
          33.4486
        ]
      }
    },
    {
      "type": "Feature",
      "properties": {
        "id": "BRENT",
        "type": "Non-Compulsory",
        "name1": "ブレント"
      },
      "geometry": {
        "type": "Point",
        "coordinates": [
          123.1828,
          25.0183
        ]
      }
    },
    {
      "type": "Feature",
      "properties": {
        "id": "BROOK",
        "type": "Non-Compulsory",
        "name1": "ブルック"
      },
      "geometry": {
        "type": "Point",
        "coordinates": [
          140.1775,
          36.0372
        ]
      }
    },
    {
      "type": "Feature",
      "properties": {
        "id": "BUDOH",
        "type": "Non-Compulsory",
        "name1": "ブドウ"
      },
      "geometry": {
        "type": "Point",
        "coordinates": [
          139.3086,
          38.3997
        ]
      }
    },
    {
      "type": "Feature",
      "properties": {
        "id": "BUICK",
        "type": "Non-Compulsory",
        "name1": "ビュイック"
      },
      "geometry": {
        "type": "Point",
        "coordinates": [
          128.7436,
          26.0683
        ]
      }
    },
    {
      "type": "Feature",
      "properties": {
        "id": "BUMER",
        "type": "Non-Compulsory",
        "name1": "ブーマー"
      },
      "geometry": {
        "type": "Point",
        "coordinates": [
          135.1058,
          34.7564
        ]
      }
    },
    {
      "type": "Feature",
      "properties": {
        "id": "BURTN",
        "type": "Non-Compulsory",
        "name1": "バートン"
      },
      "geometry": {
        "type": "Point",
        "coordinates": [
          139.8897,
          34.4903
        ]
      }
    },
    {
      "type": "Feature",
      "properties": {
        "id": "BUSYU",
        "type": "Non-Compulsory",
        "name1": "ブシュー"
      },
      "geometry": {
        "type": "Point",
        "coordinates": [
          138.7617,
          35.7942
        ]
      }
    },
    {
      "type": "Feature",
      "properties": {
        "id": "BYOBU",
        "type": "Non-Compulsory",
        "name1": "ビョウブ"
      },
      "geometry": {
        "type": "Point",
        "coordinates": [
          140.7372,
          41.0028
        ]
      }
    },
    {
      "type": "Feature",
      "properties": {
        "id": "CANAI",
        "type": "Compulsory",
        "name1": "カナイ"
      },
      "geometry": {
        "type": "Point",
        "coordinates": [
          134.0408,
          26.7336
        ]
      }
    },
    {
      "type": "Feature",
      "properties": {
        "id": "CHITOSE",
        "type": "Compulsory",
        "name1": "チトセ"
      },
      "geometry": {
        "type": "Point",
        "coordinates": [
          141.6861,
          42.7
        ]
      }
    },
    {
      "type": "Feature",
      "properties": {
        "id": "CUTEE",
        "type": "Compulsory",
        "name1": "カッティ"
      },
      "geometry": {
        "type": "Point",
        "coordinates": [
          162.31,
          46.415
        ]
      }
    },
    {
      "type": "Feature",
      "properties": {
        "id": "CACAO",
        "type": "Non-Compulsory",
        "name1": "カカオ"
      },
      "geometry": {
        "type": "Point",
        "coordinates": [
          139.925,
          35.3703
        ]
      }
    },
    {
      "type": "Feature",
      "properties": {
        "id": "CADDY",
        "type": "Non-Compulsory",
        "name1": "キャディー"
      },
      "geometry": {
        "type": "Point",
        "coordinates": [
          139.9872,
          31
        ]
      }
    },
    {
      "type": "Feature",
      "properties": {
        "id": "CAMEL",
        "type": "Non-Compulsory",
        "name1": "キャメル"
      },
      "geometry": {
        "type": "Point",
        "coordinates": [
          139.9828,
          35.2883
        ]
      }
    },
    {
      "type": "Feature",
      "properties": {
        "id": "CANDY",
        "type": "Non-Compulsory",
        "name1": "キャンディ"
      },
      "geometry": {
        "type": "Point",
        "coordinates": [
          134.9283,
          33.875
        ]
      }
    },
    {
      "type": "Feature",
      "properties": {
        "id": "CANON",
        "type": "Non-Compulsory",
        "name1": "キャノン"
      },
      "geometry": {
        "type": "Point",
        "coordinates": [
          139.6219,
          34.23
        ]
      }
    },
    {
      "type": "Feature",
      "properties": {
        "id": "CARCO",
        "type": "Non-Compulsory",
        "name1": "カーコ"
      },
      "geometry": {
        "type": "Point",
        "coordinates": [
          129.0467,
          32.7172
        ]
      }
    },
    {
      "type": "Feature",
      "properties": {
        "id": "CARDS",
        "type": "Non-Compulsory",
        "name1": "カーズ"
      },
      "geometry": {
        "type": "Point",
        "coordinates": [
          136.4008,
          34.4189
        ]
      }
    },
    {
      "type": "Feature",
      "properties": {
        "id": "CARNY",
        "type": "Non-Compulsory",
        "name1": "カーニー"
      },
      "geometry": {
        "type": "Point",
        "coordinates": [
          132.2203,
          35.1553
        ]
      }
    },
    {
      "type": "Feature",
      "properties": {
        "id": "CAVES",
        "type": "Non-Compulsory",
        "name1": "ケイブス"
      },
      "geometry": {
        "type": "Point",
        "coordinates": [
          141.9153,
          40.2642
        ]
      }
    },
    {
      "type": "Feature",
      "properties": {
        "id": "CAYAH",
        "type": "Non-Compulsory",
        "name1": "カヤー"
      },
      "geometry": {
        "type": "Point",
        "coordinates": [
          140.9686,
          38.675
        ]
      }
    },
    {
      "type": "Feature",
      "properties": {
        "id": "CECIL",
        "type": "Non-Compulsory",
        "name1": "セシル"
      },
      "geometry": {
        "type": "Point",
        "coordinates": [
          139.8689,
          35.4497
        ]
      }
    },
    {
      "type": "Feature",
      "properties": {
        "id": "CEDAR",
        "type": "Non-Compulsory",
        "name1": "シーダー"
      },
      "geometry": {
        "type": "Point",
        "coordinates": [
          130.7964,
          30.3128
        ]
      }
    },
    {
      "type": "Feature",
      "properties": {
        "id": "CHAGA",
        "type": "Non-Compulsory",
        "name1": "チャガ"
      },
      "geometry": {
        "type": "Point",
        "coordinates": [
          131.8447,
          31.9039
        ]
      }
    },
    {
      "type": "Feature",
      "properties": {
        "id": "CHARA",
        "type": "Non-Compulsory",
        "name1": "チャラ"
      },
      "geometry": {
        "type": "Point",
        "coordinates": [
          130.0272,
          32.8103
        ]
      }
    },
    {
      "type": "Feature",
      "properties": {
        "id": "CHAUS",
        "type": "Non-Compulsory",
        "name1": "チャウス"
      },
      "geometry": {
        "type": "Point",
        "coordinates": [
          138.0414,
          35.4425
        ]
      }
    },
    {
      "type": "Feature",
      "properties": {
        "id": "CHEIN",
        "type": "Non-Compulsory",
        "name1": "チェイン"
      },
      "geometry": {
        "type": "Point",
        "coordinates": [
          139.8392,
          35.4917
        ]
      }
    },
    {
      "type": "Feature",
      "properties": {
        "id": "CHERY",
        "type": "Non-Compulsory",
        "name1": "チェリー"
      },
      "geometry": {
        "type": "Point",
        "coordinates": [
          128.655,
          26.9322
        ]
      }
    },
    {
      "type": "Feature",
      "properties": {
        "id": "CHESS",
        "type": "Non-Compulsory",
        "name1": "チェス"
      },
      "geometry": {
        "type": "Point",
        "coordinates": [
          136.485,
          35.3425
        ]
      }
    },
    {
      "type": "Feature",
      "properties": {
        "id": "CHIBA",
        "type": "Non-Compulsory",
        "name1": "チバ"
      },
      "geometry": {
        "type": "Point",
        "coordinates": [
          140.0069,
          35.5894
        ]
      }
    },
    {
      "type": "Feature",
      "properties": {
        "id": "CHIMI",
        "type": "Non-Compulsory",
        "name1": "チミ"
      },
      "geometry": {
        "type": "Point",
        "coordinates": [
          125.1911,
          24.6578
        ]
      }
    },
    {
      "type": "Feature",
      "properties": {
        "id": "CHIZU",
        "type": "Non-Compulsory",
        "name1": "チズ"
      },
      "geometry": {
        "type": "Point",
        "coordinates": [
          134.5069,
          35.0294
        ]
      }
    },
    {
      "type": "Feature",
      "properties": {
        "id": "CHOKA",
        "type": "Non-Compulsory",
        "name1": "チョウカ"
      },
      "geometry": {
        "type": "Point",
        "coordinates": [
          140.2336,
          39.2861
        ]
      }
    },
    {
      "type": "Feature",
      "properties": {
        "id": "CHUBU",
        "type": "Non-Compulsory",
        "name1": "チュウブ"
      },
      "geometry": {
        "type": "Point",
        "coordinates": [
          136.8031,
          34.8581
        ]
      }
    },
    {
      "type": "Feature",
      "properties": {
        "id": "CIDER",
        "type": "Non-Compulsory",
        "name1": "サイダー"
      },
      "geometry": {
        "type": "Point",
        "coordinates": [
          139.8578,
          35.4656
        ]
      }
    },
    {
      "type": "Feature",
      "properties": {
        "id": "CISCO",
        "type": "Non-Compulsory",
        "name1": "シスコ"
      },
      "geometry": {
        "type": "Point",
        "coordinates": [
          139.7253,
          35.4194
        ]
      }
    },
    {
      "type": "Feature",
      "properties": {
        "id": "CLOVE",
        "type": "Non-Compulsory",
        "name1": "クローブ"
      },
      "geometry": {
        "type": "Point",
        "coordinates": [
          133.8536,
          34.8242
        ]
      }
    },
    {
      "type": "Feature",
      "properties": {
        "id": "COMBI",
        "type": "Non-Compulsory",
        "name1": "コンビ"
      },
      "geometry": {
        "type": "Point",
        "coordinates": [
          130.4939,
          33.9142
        ]
      }
    },
    {
      "type": "Feature",
      "properties": {
        "id": "CORCO",
        "type": "Non-Compulsory",
        "name1": "コルコ"
      },
      "geometry": {
        "type": "Point",
        "coordinates": [
          130.9875,
          25.8739
        ]
      }
    },
    {
      "type": "Feature",
      "properties": {
        "id": "COSMO",
        "type": "Non-Compulsory",
        "name1": "コスモ"
      },
      "geometry": {
        "type": "Point",
        "coordinates": [
          140.5108,
          35.5767
        ]
      }
    },
    {
      "type": "Feature",
      "properties": {
        "id": "CRANE",
        "type": "Non-Compulsory",
        "name1": "クレーン"
      },
      "geometry": {
        "type": "Point",
        "coordinates": [
          144.5833,
          43.2986
        ]
      }
    },
    {
      "type": "Feature",
      "properties": {
        "id": "CREST",
        "type": "Non-Compulsory",
        "name1": "クレスト"
      },
      "geometry": {
        "type": "Point",
        "coordinates": [
          139.8483,
          35.4786
        ]
      }
    },
    {
      "type": "Feature",
      "properties": {
        "id": "CROWN",
        "type": "Non-Compulsory",
        "name1": "クラウン"
      },
      "geometry": {
        "type": "Point",
        "coordinates": [
          140.4814,
          35.6622
        ]
      }
    },
    {
      "type": "Feature",
      "properties": {
        "id": "CUPIE",
        "type": "Non-Compulsory",
        "name1": "キューピー"
      },
      "geometry": {
        "type": "Point",
        "coordinates": [
          133.1242,
          35.4458
        ]
      }
    },
    {
      "type": "Feature",
      "properties": {
        "id": "CYGNY",
        "type": "Non-Compulsory",
        "name1": "シグニー"
      },
      "geometry": {
        "type": "Point",
        "coordinates": [
          140.2883,
          35.9292
        ]
      }
    },
    {
      "type": "Feature",
      "properties": {
        "id": "CACAO",
        "type": "Non-Compulsory",
        "name1": "カカオ"
      },
      "geometry": {
        "type": "Point",
        "coordinates": [
          139.925,
          35.3703
        ]
      }
    },
    {
      "type": "Feature",
      "properties": {
        "id": "CHIMI",
        "type": "Non-Compulsory",
        "name1": "チミ"
      },
      "geometry": {
        "type": "Point",
        "coordinates": [
          125.1911,
          24.6578
        ]
      }
    },
    {
      "type": "Feature",
      "properties": {
        "id": "DAGDA",
        "type": "Compulsory",
        "name1": "ダグダ"
      },
      "geometry": {
        "type": "Point",
        "coordinates": [
          142.3478,
          33.8161
        ]
      }
    },
    {
      "type": "Feature",
      "properties": {
        "id": "DEMPA",
        "type": "Compulsory",
        "name1": "デンパ"
      },
      "geometry": {
        "type": "Point",
        "coordinates": [
          135.3311,
          31.725
        ]
      }
    },
    {
      "type": "Feature",
      "properties": {
        "id": "DOVAG",
        "type": "Compulsory",
        "name1": "ドバック"
      },
      "geometry": {
        "type": "Point",
        "coordinates": [
          133.8142,
          28.5839
        ]
      }
    },
    {
      "type": "Feature",
      "properties": {
        "id": "DAGRI",
        "type": "Non-Compulsory",
        "name1": "ダグリ"
      },
      "geometry": {
        "type": "Point",
        "coordinates": [
          131.1106,
          31.4339
        ]
      }
    },
    {
      "type": "Feature",
      "properties": {
        "id": "DAIBU",
        "type": "Non-Compulsory",
        "name1": "ダイブ"
      },
      "geometry": {
        "type": "Point",
        "coordinates": [
          139.5231,
          35.4761
        ]
      }
    },
    {
      "type": "Feature",
      "properties": {
        "id": "DAIEI",
        "type": "Non-Compulsory",
        "name1": "ダイエイ"
      },
      "geometry": {
        "type": "Point",
        "coordinates": [
          133.7028,
          35.5106
        ]
      }
    },
    {
      "type": "Feature",
      "properties": {
        "id": "DAIJO",
        "type": "Non-Compulsory",
        "name1": "ダイジョー"
      },
      "geometry": {
        "type": "Point",
        "coordinates": [
          136.2089,
          36.2817
        ]
      }
    },
    {
      "type": "Feature",
      "properties": {
        "id": "DAIOH",
        "type": "Non-Compulsory",
        "name1": "ダイオー"
      },
      "geometry": {
        "type": "Point",
        "coordinates": [
          137.3936,
          34.2631
        ]
      }
    },
    {
      "type": "Feature",
      "properties": {
        "id": "DAIWA",
        "type": "Non-Compulsory",
        "name1": "ダイワ"
      },
      "geometry": {
        "type": "Point",
        "coordinates": [
          140.8833,
          38.3328
        ]
      }
    },
    {
      "type": "Feature",
      "properties": {
        "id": "DALMA",
        "type": "Non-Compulsory",
        "name1": "ダルマ"
      },
      "geometry": {
        "type": "Point",
        "coordinates": [
          138.8561,
          35.0139
        ]
      }
    },
    {
      "type": "Feature",
      "properties": {
        "id": "DAMBO",
        "type": "Non-Compulsory",
        "name1": "ダンボ"
      },
      "geometry": {
        "type": "Point",
        "coordinates": [
          140.0789,
          35.5714
        ]
      }
    },
    {
      "type": "Feature",
      "properties": {
        "id": "DANJU",
        "type": "Non-Compulsory",
        "name1": "ダンジュ"
      },
      "geometry": {
        "type": "Point",
        "coordinates": [
          132.5781,
          35.6261
        ]
      }
    },
    {
      "type": "Feature",
      "properties": {
        "id": "DANKE",
        "type": "Non-Compulsory",
        "name1": "ダンケ"
      },
      "geometry": {
        "type": "Point",
        "coordinates": [
          125.2533,
          24.5994
        ]
      }
    },
    {
      "type": "Feature",
      "properties": {
        "id": "DANON",
        "type": "Non-Compulsory",
        "name1": "ダノン"
      },
      "geometry": {
        "type": "Point",
        "coordinates": [
          137.9458,
          35.5717
        ]
      }
    },
    {
      "type": "Feature",
      "properties": {
        "id": "DANTE",
        "type": "Non-Compulsory",
        "name1": "ダンテ"
      },
      "geometry": {
        "type": "Point",
        "coordinates": [
          140.4728,
          36.1214
        ]
      }
    },
    {
      "type": "Feature",
      "properties": {
        "id": "DAPPE",
        "type": "Non-Compulsory",
        "name1": "ダッペ"
      },
      "geometry": {
        "type": "Point",
        "coordinates": [
          140.9419,
          36.5781
        ]
      }
    },
    {
      "type": "Feature",
      "properties": {
        "id": "DARKS",
        "type": "Non-Compulsory",
        "name1": "ダークス"
      },
      "geometry": {
        "type": "Point",
        "coordinates": [
          139.9842,
          35.5708
        ]
      }
    },
    {
      "type": "Feature",
      "properties": {
        "id": "DASSY",
        "type": "Non-Compulsory",
        "name1": "ダッシー"
      },
      "geometry": {
        "type": "Point",
        "coordinates": [
          141.7994,
          45.2844
        ]
      }
    },
    {
      "type": "Feature",
      "properties": {
        "id": "DATIS",
        "type": "Non-Compulsory",
        "name1": "ダティス"
      },
      "geometry": {
        "type": "Point",
        "coordinates": [
          134.9369,
          33.9811
        ]
      }
    },
    {
      "type": "Feature",
      "properties": {
        "id": "DATZU",
        "type": "Non-Compulsory",
        "name1": "ダッツ"
      },
      "geometry": {
        "type": "Point",
        "coordinates": [
          144.7678,
          43.5292
        ]
      }
    },
    {
      "type": "Feature",
      "properties": {
        "id": "DEANE",
        "type": "Non-Compulsory",
        "name1": "ディーン"
      },
      "geometry": {
        "type": "Point",
        "coordinates": [
          140.1319,
          35.5714
        ]
      }
    },
    {
      "type": "Feature",
      "properties": {
        "id": "DEIJI",
        "type": "Non-Compulsory",
        "name1": "デイジ"
      },
      "geometry": {
        "type": "Point",
        "coordinates": [
          127.6544,
          26.0478
        ]
      }
    },
    {
      "type": "Feature",
      "properties": {
        "id": "DELTA",
        "type": "Non-Compulsory",
        "name1": "デルタ"
      },
      "geometry": {
        "type": "Point",
        "coordinates": [
          130.5144,
          27.8706
        ]
      }
    },
    {
      "type": "Feature",
      "properties": {
        "id": "DIANA",
        "type": "Non-Compulsory",
        "name1": "ダイアナ"
      },
      "geometry": {
        "type": "Point",
        "coordinates": [
          125.0981,
          24.9981
        ]
      }
    },
    {
      "type": "Feature",
      "properties": {
        "id": "DIFUK",
        "type": "Non-Compulsory",
        "name1": "ダイフク"
      },
      "geometry": {
        "type": "Point",
        "coordinates": [
          145.1814,
          43.3786
        ]
      }
    },
    {
      "type": "Feature",
      "properties": {
        "id": "DIODE",
        "type": "Non-Compulsory",
        "name1": "ダイオード"
      },
      "geometry": {
        "type": "Point",
        "coordinates": [
          136.6178,
          33.9061
        ]
      }
    },
    {
      "type": "Feature",
      "properties": {
        "id": "DOALA",
        "type": "Non-Compulsory",
        "name1": "ドアラ"
      },
      "geometry": {
        "type": "Point",
        "coordinates": [
          134.7656,
          35.1425
        ]
      }
    },
    {
      "type": "Feature",
      "properties": {
        "id": "DODGE",
        "type": "Non-Compulsory",
        "name1": "ダッジ"
      },
      "geometry": {
        "type": "Point",
        "coordinates": [
          126.8742,
          25.7439
        ]
      }
    },
    {
      "type": "Feature",
      "properties": {
        "id": "DOLLY",
        "type": "Non-Compulsory",
        "name1": "ドリー"
      },
      "geometry": {
        "type": "Point",
        "coordinates": [
          136.8339,
          34.7439
        ]
      }
    },
    {
      "type": "Feature",
      "properties": {
        "id": "DOMEL",
        "type": "Non-Compulsory",
        "name1": "ドメル"
      },
      "geometry": {
        "type": "Point",
        "coordinates": [
          139.9431,
          35.5706
        ]
      }
    },
    {
      "type": "Feature",
      "properties": {
        "id": "DONAN",
        "type": "Non-Compulsory",
        "name1": "ドナン"
      },
      "geometry": {
        "type": "Point",
        "coordinates": [
          141.3322,
          27.9656
        ]
      }
    },
    {
      "type": "Feature",
      "properties": {
        "id": "DONAR",
        "type": "Non-Compulsory",
        "name1": "ドナー"
      },
      "geometry": {
        "type": "Point",
        "coordinates": [
          132.4847,
          33.3514
        ]
      }
    },
    {
      "type": "Feature",
      "properties": {
        "id": "DONKO",
        "type": "Non-Compulsory",
        "name1": "ドンコ"
      },
      "geometry": {
        "type": "Point",
        "coordinates": [
          131.9456,
          33.7947
        ]
      }
    },
    {
      "type": "Feature",
      "properties": {
        "id": "DONKY",
        "type": "Non-Compulsory",
        "name1": "ドンキー"
      },
      "geometry": {
        "type": "Point",
        "coordinates": [
          132.1853,
          32.6564
        ]
      }
    },
    {
      "type": "Feature",
      "properties": {
        "id": "DORIS",
        "type": "Non-Compulsory",
        "name1": "ドリス"
      },
      "geometry": {
        "type": "Point",
        "coordinates": [
          126.6983,
          26.0753
        ]
      }
    },
    {
      "type": "Feature",
      "properties": {
        "id": "DOVIX",
        "type": "Non-Compulsory",
        "name1": "ドビックス"
      },
      "geometry": {
        "type": "Point",
        "coordinates": [
          144.2575,
          37.0353
        ]
      }
    },
    {
      "type": "Feature",
      "properties": {
        "id": "DOYLE",
        "type": "Non-Compulsory",
        "name1": "ドイル"
      },
      "geometry": {
        "type": "Point",
        "coordinates": [
          139.9431,
          35.5714
        ]
      }
    },
    {
      "type": "Feature",
      "properties": {
        "id": "DOZEN",
        "type": "Non-Compulsory",
        "name1": "ドゼン"
      },
      "geometry": {
        "type": "Point",
        "coordinates": [
          133.2569,
          36.035
        ]
      }
    },
    {
      "type": "Feature",
      "properties": {
        "id": "DUFFY",
        "type": "Non-Compulsory",
        "name1": "ダフィー"
      },
      "geometry": {
        "type": "Point",
        "coordinates": [
          126.5136,
          26.1406
        ]
      }
    },
    {
      "type": "Feature",
      "properties": {
        "id": "EMRON",
        "type": "Compulsory",
        "name1": "エムロン"
      },
      "geometry": {
        "type": "Point",
        "coordinates": [
          150,
          38.1061
        ]
      }
    },
    {
      "type": "Feature",
      "properties": {
        "id": "ERABU",
        "type": "Compulsory",
        "name1": "エラブ"
      },
      "geometry": {
        "type": "Point",
        "coordinates": [
          128.6989,
          27.4328
        ]
      }
    },
    {
      "type": "Feature",
      "properties": {
        "id": "EBISU",
        "type": "Non-Compulsory",
        "name1": "エビス"
      },
      "geometry": {
        "type": "Point",
        "coordinates": [
          130.5908,
          34.0389
        ]
      }
    },
    {
      "type": "Feature",
      "properties": {
        "id": "EBUSI",
        "type": "Non-Compulsory",
        "name1": "エブシ"
      },
      "geometry": {
        "type": "Point",
        "coordinates": [
          137.2153,
          36.7394
        ]
      }
    },
    {
      "type": "Feature",
      "properties": {
        "id": "EDARR",
        "type": "Non-Compulsory",
        "name1": "エダー"
      },
      "geometry": {
        "type": "Point",
        "coordinates": [
          139.5417,
          35.5572
        ]
      }
    },
    {
      "type": "Feature",
      "properties": {
        "id": "EGAWA",
        "type": "Non-Compulsory",
        "name1": "エガワ"
      },
      "geometry": {
        "type": "Point",
        "coordinates": [
          139.9022,
          35.2969
        ]
      }
    },
    {
      "type": "Feature",
      "properties": {
        "id": "EGOGO",
        "type": "Non-Compulsory",
        "name1": "エゴゴ"
      },
      "geometry": {
        "type": "Point",
        "coordinates": [
          136.2369,
          34.4956
        ]
      }
    },
    {
      "type": "Feature",
      "properties": {
        "id": "EISAR",
        "type": "Non-Compulsory",
        "name1": "エイサ"
      },
      "geometry": {
        "type": "Point",
        "coordinates": [
          127.6244,
          26.4828
        ]
      }
    },
    {
      "type": "Feature",
      "properties": {
        "id": "EKOMU",
        "type": "Non-Compulsory",
        "name1": "エコム"
      },
      "geometry": {
        "type": "Point",
        "coordinates": [
          141.6911,
          42.6653
        ]
      }
    },
    {
      "type": "Feature",
      "properties": {
        "id": "EKORU",
        "type": "Non-Compulsory",
        "name1": "エコル"
      },
      "geometry": {
        "type": "Point",
        "coordinates": [
          131.4817,
          31.485
        ]
      }
    },
    {
      "type": "Feature",
      "properties": {
        "id": "ELBIP",
        "type": "Non-Compulsory",
        "name1": "エルビップ"
      },
      "geometry": {
        "type": "Point",
        "coordinates": [
          128.8089,
          27.1194
        ]
      }
    },
    {
      "type": "Feature",
      "properties": {
        "id": "ELBOR",
        "type": "Non-Compulsory",
        "name1": "エルボー"
      },
      "geometry": {
        "type": "Point",
        "coordinates": [
          139.3044,
          38.1511
        ]
      }
    },
    {
      "type": "Feature",
      "properties": {
        "id": "ELDAK",
        "type": "Non-Compulsory",
        "name1": "エルダック"
      },
      "geometry": {
        "type": "Point",
        "coordinates": [
          139.7611,
          38.0261
        ]
      }
    },
    {
      "type": "Feature",
      "properties": {
        "id": "ELIEE",
        "type": "Non-Compulsory",
        "name1": "エリー"
      },
      "geometry": {
        "type": "Point",
        "coordinates": [
          127.6406,
          26.0211
        ]
      }
    },
    {
      "type": "Feature",
      "properties": {
        "id": "ELSAH",
        "type": "Non-Compulsory",
        "name1": "エルサ"
      },
      "geometry": {
        "type": "Point",
        "coordinates": [
          134.0008,
          35.0553
        ]
      }
    },
    {
      "type": "Feature",
      "properties": {
        "id": "EMIKO",
        "type": "Non-Compulsory",
        "name1": "エミコ"
      },
      "geometry": {
        "type": "Point",
        "coordinates": [
          128.7525,
          27.4794
        ]
      }
    },
    {
      "type": "Feature",
      "properties": {
        "id": "EMITT",
        "type": "Non-Compulsory",
        "name1": "エミット"
      },
      "geometry": {
        "type": "Point",
        "coordinates": [
          135.0858,
          35.4192
        ]
      }
    },
    {
      "type": "Feature",
      "properties": {
        "id": "ENBEN",
        "type": "Non-Compulsory",
        "name1": "エンベン"
      },
      "geometry": {
        "type": "Point",
        "coordinates": [
          131.1308,
          32.3953
        ]
      }
    },
    {
      "type": "Feature",
      "properties": {
        "id": "ENBRY",
        "type": "Non-Compulsory",
        "name1": "エンブリー"
      },
      "geometry": {
        "type": "Point",
        "coordinates": [
          141.7058,
          40.5181
        ]
      }
    },
    {
      "type": "Feature",
      "properties": {
        "id": "ENDEG",
        "type": "Non-Compulsory",
        "name1": "エンデッグ"
      },
      "geometry": {
        "type": "Point",
        "coordinates": [
          124.1989,
          24.3378
        ]
      }
    },
    {
      "type": "Feature",
      "properties": {
        "id": "ENGEZ",
        "type": "Non-Compulsory",
        "name1": "エンゲツ"
      },
      "geometry": {
        "type": "Point",
        "coordinates": [
          135.3061,
          33.7203
        ]
      }
    },
    {
      "type": "Feature",
      "properties": {
        "id": "ENLUG",
        "type": "Non-Compulsory",
        "name1": "エンラグ"
      },
      "geometry": {
        "type": "Point",
        "coordinates": [
          130.9247,
          33.6322
        ]
      }
    },
    {
      "type": "Feature",
      "properties": {
        "id": "ENPAD",
        "type": "Non-Compulsory",
        "name1": "エンパッド"
      },
      "geometry": {
        "type": "Point",
        "coordinates": [
          130.0706,
          30.5769
        ]
      }
    },
    {
      "type": "Feature",
      "properties": {
        "id": "ENPOM",
        "type": "Non-Compulsory",
        "name1": "エンポム"
      },
      "geometry": {
        "type": "Point",
        "coordinates": [
          138.2928,
          34.755
        ]
      }
    },
    {
      "type": "Feature",
      "properties": {
        "id": "ENRAB",
        "type": "Non-Compulsory",
        "name1": "エンラブ"
      },
      "geometry": {
        "type": "Point",
        "coordinates": [
          131.5314,
          34.7467
        ]
      }
    },
    {
      "type": "Feature",
      "properties": {
        "id": "ENRIT",
        "type": "Non-Compulsory",
        "name1": "エンリット"
      },
      "geometry": {
        "type": "Point",
        "coordinates": [
          141.4275,
          45.3514
        ]
      }
    },
    {
      "type": "Feature",
      "properties": {
        "id": "ENSES",
        "type": "Non-Compulsory",
        "name1": "エンセス"
      },
      "geometry": {
        "type": "Point",
        "coordinates": [
          134.9953,
          33.9028
        ]
      }
    },
    {
      "type": "Feature",
      "properties": {
        "id": "ENSYU",
        "type": "Non-Compulsory",
        "name1": "エンシュウ"
      },
      "geometry": {
        "type": "Point",
        "coordinates": [
          138.0342,
          34.5433
        ]
      }
    },
    {
      "type": "Feature",
      "properties": {
        "id": "ESANN",
        "type": "Non-Compulsory",
        "name1": "エサン"
      },
      "geometry": {
        "type": "Point",
        "coordinates": [
          141.0908,
          42.0561
        ]
      }
    },
    {
      "type": "Feature",
      "properties": {
        "id": "ESASI",
        "type": "Non-Compulsory",
        "name1": "エサシ"
      },
      "geometry": {
        "type": "Point",
        "coordinates": [
          140.19,
          41.9133
        ]
      }
    },
    {
      "type": "Feature",
      "properties": {
        "id": "ESBIS",
        "type": "Non-Compulsory",
        "name1": "エスビス"
      },
      "geometry": {
        "type": "Point",
        "coordinates": [
          127.3814,
          31.2536
        ]
      }
    },
    {
      "type": "Feature",
      "properties": {
        "id": "ESDUS",
        "type": "Non-Compulsory",
        "name1": "エスダス"
      },
      "geometry": {
        "type": "Point",
        "coordinates": [
          139.4317,
          35.3469
        ]
      }
    },
    {
      "type": "Feature",
      "properties": {
        "id": "ESKAP",
        "type": "Non-Compulsory",
        "name1": "エスカップ"
      },
      "geometry": {
        "type": "Point",
        "coordinates": [
          131.3392,
          32.5564
        ]
      }
    },
    {
      "type": "Feature",
      "properties": {
        "id": "ESKOB",
        "type": "Non-Compulsory",
        "name1": "エスコブ"
      },
      "geometry": {
        "type": "Point",
        "coordinates": [
          127.9578,
          26.1694
        ]
      }
    },
    {
      "type": "Feature",
      "properties": {
        "id": "ESKOK",
        "type": "Non-Compulsory",
        "name1": "エスコック"
      },
      "geometry": {
        "type": "Point",
        "coordinates": [
          142.3347,
          34.7322
        ]
      }
    },
    {
      "type": "Feature",
      "properties": {
        "id": "ESLIL",
        "type": "Non-Compulsory",
        "name1": "エスリル"
      },
      "geometry": {
        "type": "Point",
        "coordinates": [
          130.9175,
          32.3203
        ]
      }
    },
    {
      "type": "Feature",
      "properties": {
        "id": "ESNAL",
        "type": "Non-Compulsory",
        "name1": "エスナル"
      },
      "geometry": {
        "type": "Point",
        "coordinates": [
          130.605,
          32.8536
        ]
      }
    },
    {
      "type": "Feature",
      "properties": {
        "id": "ESPAN",
        "type": "Non-Compulsory",
        "name1": "エスパン"
      },
      "geometry": {
        "type": "Point",
        "coordinates": [
          136.5858,
          34.1872
        ]
      }
    },
    {
      "type": "Feature",
      "properties": {
        "id": "ESPEK",
        "type": "Non-Compulsory",
        "name1": "エスペック"
      },
      "geometry": {
        "type": "Point",
        "coordinates": [
          127.0797,
          24.9725
        ]
      }
    },
    {
      "type": "Feature",
      "properties": {
        "id": "EXPOH",
        "type": "Non-Compulsory",
        "name1": "エキスポー"
      },
      "geometry": {
        "type": "Point",
        "coordinates": [
          137.02,
          35.1053
        ]
      }
    },
    {
      "type": "Feature",
      "properties": {
        "id": "FUKUOKA",
        "type": "Compulsory",
        "name1": "フクオカ"
      },
      "geometry": {
        "type": "Point",
        "coordinates": [
          130.3897,
          33.6761
        ]
      }
    },
    {
      "type": "Feature",
      "properties": {
        "id": "FENDI",
        "type": "Non-Compulsory",
        "name1": "フェンディ"
      },
      "geometry": {
        "type": "Point",
        "coordinates": [
          136.7847,
          34.9442
        ]
      }
    },
    {
      "type": "Feature",
      "properties": {
        "id": "FENIX",
        "type": "Non-Compulsory",
        "name1": "フェニックス"
      },
      "geometry": {
        "type": "Point",
        "coordinates": [
          131.5914,
          32.1417
        ]
      }
    },
    {
      "type": "Feature",
      "properties": {
        "id": "FERAR",
        "type": "Non-Compulsory",
        "name1": "フェラー"
      },
      "geometry": {
        "type": "Point",
        "coordinates": [
          145.9964,
          33.2369
        ]
      }
    },
    {
      "type": "Feature",
      "properties": {
        "id": "FINCH",
        "type": "Non-Compulsory",
        "name1": "フィンチ"
      },
      "geometry": {
        "type": "Point",
        "coordinates": [
          140.6061,
          38.1092
        ]
      }
    },
    {
      "type": "Feature",
      "properties": {
        "id": "FKASI",
        "type": "Non-Compulsory",
        "name1": "フカシ"
      },
      "geometry": {
        "type": "Point",
        "coordinates": [
          137.915,
          36.2714
        ]
      }
    },
    {
      "type": "Feature",
      "properties": {
        "id": "FTAMI",
        "type": "Non-Compulsory",
        "name1": "フタミ"
      },
      "geometry": {
        "type": "Point",
        "coordinates": [
          136.7086,
          34.5678
        ]
      }
    },
    {
      "type": "Feature",
      "properties": {
        "id": "FUBKI",
        "type": "Non-Compulsory",
        "name1": "フブキ"
      },
      "geometry": {
        "type": "Point",
        "coordinates": [
          130.0536,
          32.7856
        ]
      }
    },
    {
      "type": "Feature",
      "properties": {
        "id": "FUCHA",
        "type": "Non-Compulsory",
        "name1": "フッチャ"
      },
      "geometry": {
        "type": "Point",
        "coordinates": [
          128.8192,
          27.5375
        ]
      }
    },
    {
      "type": "Feature",
      "properties": {
        "id": "FUCHU",
        "type": "Non-Compulsory",
        "name1": "フチュウ"
      },
      "geometry": {
        "type": "Point",
        "coordinates": [
          133.8958,
          34.2642
        ]
      }
    },
    {
      "type": "Feature",
      "properties": {
        "id": "FUGEN",
        "type": "Non-Compulsory",
        "name1": "フゲン"
      },
      "geometry": {
        "type": "Point",
        "coordinates": [
          130.4903,
          32.6553
        ]
      }
    },
    {
      "type": "Feature",
      "properties": {
        "id": "FUKUE",
        "type": "Non-Compulsory",
        "name1": "フクエ"
      },
      "geometry": {
        "type": "Point",
        "coordinates": [
          128.8267,
          32.6686
        ]
      }
    },
    {
      "type": "Feature",
      "properties": {
        "id": "FURAH",
        "type": "Non-Compulsory",
        "name1": "フラ"
      },
      "geometry": {
        "type": "Point",
        "coordinates": [
          140.2344,
          36.9661
        ]
      }
    },
    {
      "type": "Feature",
      "properties": {
        "id": "FUSSE",
        "type": "Non-Compulsory",
        "name1": "フッセ"
      },
      "geometry": {
        "type": "Point",
        "coordinates": [
          133.4158,
          36.2125
        ]
      }
    },
    {
      "type": "Feature",
      "properties": {
        "id": "GURAG",
        "type": "Compulsory",
        "name1": "グラグ"
      },
      "geometry": {
        "type": "Point",
        "coordinates": [
          127.4167,
          21
        ]
      }
    },
    {
      "type": "Feature",
      "properties": {
        "id": "GURAR",
        "type": "Compulsory",
        "name1": "グーラー"
      },
      "geometry": {
        "type": "Point",
        "coordinates": [
          134.2272,
          30.9864
        ]
      }
    },
    {
      "type": "Feature",
      "properties": {
        "id": "GAINA",
        "type": "Non-Compulsory",
        "name1": "ガイナ"
      },
      "geometry": {
        "type": "Point",
        "coordinates": [
          133.5242,
          35.6067
        ]
      }
    },
    {
      "type": "Feature",
      "properties": {
        "id": "GAKTO",
        "type": "Non-Compulsory",
        "name1": "ガクト"
      },
      "geometry": {
        "type": "Point",
        "coordinates": [
          137.9117,
          36.3561
        ]
      }
    },
    {
      "type": "Feature",
      "properties": {
        "id": "GAMAR",
        "type": "Non-Compulsory",
        "name1": "ガマー"
      },
      "geometry": {
        "type": "Point",
        "coordinates": [
          140.0831,
          36.1886
        ]
      }
    },
    {
      "type": "Feature",
      "properties": {
        "id": "GANAS",
        "type": "Non-Compulsory",
        "name1": "ガナス"
      },
      "geometry": {
        "type": "Point",
        "coordinates": [
          125.8775,
          25.435
        ]
      }
    },
    {
      "type": "Feature",
      "properties": {
        "id": "GANDO",
        "type": "Non-Compulsory",
        "name1": "ガンド"
      },
      "geometry": {
        "type": "Point",
        "coordinates": [
          137.2386,
          36.7261
        ]
      }
    },
    {
      "type": "Feature",
      "properties": {
        "id": "GATAL",
        "type": "Non-Compulsory",
        "name1": "ガタル"
      },
      "geometry": {
        "type": "Point",
        "coordinates": [
          130.1278,
          33.0797
        ]
      }
    },
    {
      "type": "Feature",
      "properties": {
        "id": "GATES",
        "type": "Non-Compulsory",
        "name1": "ゲイツ"
      },
      "geometry": {
        "type": "Point",
        "coordinates": [
          134.8172,
          34.1392
        ]
      }
    },
    {
      "type": "Feature",
      "properties": {
        "id": "GATSU",
        "type": "Non-Compulsory",
        "name1": "ガツ"
      },
      "geometry": {
        "type": "Point",
        "coordinates": [
          140.0511,
          40.2306
        ]
      }
    },
    {
      "type": "Feature",
      "properties": {
        "id": "GENGE",
        "type": "Non-Compulsory",
        "name1": "ゲンゲ"
      },
      "geometry": {
        "type": "Point",
        "coordinates": [
          137.7669,
          37.5422
        ]
      }
    },
    {
      "type": "Feature",
      "properties": {
        "id": "GIINA",
        "type": "Non-Compulsory",
        "name1": "ジーナ"
      },
      "geometry": {
        "type": "Point",
        "coordinates": [
          140.5497,
          35.5225
        ]
      }
    },
    {
      "type": "Feature",
      "properties": {
        "id": "GILUS",
        "type": "Non-Compulsory",
        "name1": "ギルス"
      },
      "geometry": {
        "type": "Point",
        "coordinates": [
          131.1828,
          33.8794
        ]
      }
    },
    {
      "type": "Feature",
      "properties": {
        "id": "GINGA",
        "type": "Non-Compulsory",
        "name1": "ギンガ"
      },
      "geometry": {
        "type": "Point",
        "coordinates": [
          143.9531,
          43.6275
        ]
      }
    },
    {
      "type": "Feature",
      "properties": {
        "id": "GLAXY",
        "type": "Non-Compulsory",
        "name1": "グラクシー"
      },
      "geometry": {
        "type": "Point",
        "coordinates": [
          140.6494,
          36.5167
        ]
      }
    },
    {
      "type": "Feature",
      "properties": {
        "id": "GOBOH",
        "type": "Non-Compulsory",
        "name1": "ゴボー"
      },
      "geometry": {
        "type": "Point",
        "coordinates": [
          135.1061,
          33.91
        ]
      }
    },
    {
      "type": "Feature",
      "properties": {
        "id": "GOGON",
        "type": "Non-Compulsory",
        "name1": "ゴゴン"
      },
      "geometry": {
        "type": "Point",
        "coordinates": [
          141.2558,
          40.4717
        ]
      }
    },
    {
      "type": "Feature",
      "properties": {
        "id": "GOHEI",
        "type": "Non-Compulsory",
        "name1": "ゴヘイ"
      },
      "geometry": {
        "type": "Point",
        "coordinates": [
          137.3578,
          36.1978
        ]
      }
    },
    {
      "type": "Feature",
      "properties": {
        "id": "GOKOR",
        "type": "Non-Compulsory",
        "name1": "ゴコール"
      },
      "geometry": {
        "type": "Point",
        "coordinates": [
          140.2475,
          35.9411
        ]
      }
    },
    {
      "type": "Feature",
      "properties": {
        "id": "GOLIA",
        "type": "Non-Compulsory",
        "name1": "ゴライア"
      },
      "geometry": {
        "type": "Point",
        "coordinates": [
          135.0028,
          34.2756
        ]
      }
    },
    {
      "type": "Feature",
      "properties": {
        "id": "GOLUS",
        "type": "Non-Compulsory",
        "name1": "ゴラス"
      },
      "geometry": {
        "type": "Point",
        "coordinates": [
          140.5208,
          40.8817
        ]
      }
    },
    {
      "type": "Feature",
      "properties": {
        "id": "GOMAF",
        "type": "Non-Compulsory",
        "name1": "ゴマフ"
      },
      "geometry": {
        "type": "Point",
        "coordinates": [
          143.3519,
          44.4003
        ]
      }
    },
    {
      "type": "Feature",
      "properties": {
        "id": "GOMAR",
        "type": "Non-Compulsory",
        "name1": "ゴマー"
      },
      "geometry": {
        "type": "Point",
        "coordinates": [
          127.8581,
          32.4625
        ]
      }
    },
    {
      "type": "Feature",
      "properties": {
        "id": "GOMES",
        "type": "Non-Compulsory",
        "name1": "ゴメス"
      },
      "geometry": {
        "type": "Point",
        "coordinates": [
          128.6989,
          27.2711
        ]
      }
    },
    {
      "type": "Feature",
      "properties": {
        "id": "GONOU",
        "type": "Non-Compulsory",
        "name1": "ゴノウ"
      },
      "geometry": {
        "type": "Point",
        "coordinates": [
          140.0514,
          40.4203
        ]
      }
    },
    {
      "type": "Feature",
      "properties": {
        "id": "GORYU",
        "type": "Non-Compulsory",
        "name1": "ゴリュウ"
      },
      "geometry": {
        "type": "Point",
        "coordinates": [
          137.7694,
          37.1986
        ]
      }
    },
    {
      "type": "Feature",
      "properties": {
        "id": "GOTOH",
        "type": "Non-Compulsory",
        "name1": "ゴトー"
      },
      "geometry": {
        "type": "Point",
        "coordinates": [
          123.1719,
          24.5553
        ]
      }
    },
    {
      "type": "Feature",
      "properties": {
        "id": "GOURA",
        "type": "Non-Compulsory",
        "name1": "ゴーラ"
      },
      "geometry": {
        "type": "Point",
        "coordinates": [
          129.2811,
          33.6942
        ]
      }
    },
    {
      "type": "Feature",
      "properties": {
        "id": "GOZEN",
        "type": "Non-Compulsory",
        "name1": "ゴゼン"
      },
      "geometry": {
        "type": "Point",
        "coordinates": [
          136.1992,
          36.4181
        ]
      }
    },
    {
      "type": "Feature",
      "properties": {
        "id": "GREEN",
        "type": "Non-Compulsory",
        "name1": "グリーン"
      },
      "geometry": {
        "type": "Point",
        "coordinates": [
          133.5664,
          32.8986
        ]
      }
    },
    {
      "type": "Feature",
      "properties": {
        "id": "GULEG",
        "type": "Non-Compulsory",
        "name1": "グレグ"
      },
      "geometry": {
        "type": "Point",
        "coordinates": [
          138.1672,
          32.8761
        ]
      }
    },
    {
      "type": "Feature",
      "properties": {
        "id": "GUMBO",
        "type": "Non-Compulsory",
        "name1": "ガンボ"
      },
      "geometry": {
        "type": "Point",
        "coordinates": [
          123.2517,
          22.765
        ]
      }
    },
    {
      "type": "Feature",
      "properties": {
        "id": "GUMYO",
        "type": "Non-Compulsory",
        "name1": "グミョウ"
      },
      "geometry": {
        "type": "Point",
        "coordinates": [
          140.3672,
          35.5469
        ]
      }
    },
    {
      "type": "Feature",
      "properties": {
        "id": "GUNVI",
        "type": "Non-Compulsory",
        "name1": "ガンヴィ"
      },
      "geometry": {
        "type": "Point",
        "coordinates": [
          134.7381,
          34.1083
        ]
      }
    },
    {
      "type": "Feature",
      "properties": {
        "id": "GUPTI",
        "type": "Non-Compulsory",
        "name1": "ガプティー"
      },
      "geometry": {
        "type": "Point",
        "coordinates": [
          128.1553,
          29.0233
        ]
      }
    },
    {
      "type": "Feature",
      "properties": {
        "id": "GURUX",
        "type": "Non-Compulsory",
        "name1": "グルックス"
      },
      "geometry": {
        "type": "Point",
        "coordinates": [
          127.6322,
          26.1478
        ]
      }
    },
    {
      "type": "Feature",
      "properties": {
        "id": "GUSUK",
        "type": "Non-Compulsory",
        "name1": "グスク"
      },
      "geometry": {
        "type": "Point",
        "coordinates": [
          124.4242,
          24.465
        ]
      }
    },
    {
      "type": "Feature",
      "properties": {
        "id": "GUTLO",
        "type": "Non-Compulsory",
        "name1": "ガトロ"
      },
      "geometry": {
        "type": "Point",
        "coordinates": [
          140.3481,
          34.7875
        ]
      }
    },
    {
      "type": "Feature",
      "properties": {
        "id": "GYOGN",
        "type": "Non-Compulsory",
        "name1": "ギョグン"
      },
      "geometry": {
        "type": "Point",
        "coordinates": [
          139.8125,
          33.5303
        ]
      }
    },
    {
      "type": "Feature",
      "properties": {
        "id": "HACHIJOJIMA",
        "type": "Compulsory",
        "name1": "ハチジョウジマ"
      },
      "geometry": {
        "type": "Point",
        "coordinates": [
          139.7886,
          33.1144
        ]
      }
    },
    {
      "type": "Feature",
      "properties": {
        "id": "HAKODATE",
        "type": "Compulsory",
        "name1": "ハコダテ"
      },
      "geometry": {
        "type": "Point",
        "coordinates": [
          140.8322,
          41.7742
        ]
      }
    },
    {
      "type": "Feature",
      "properties": {
        "id": "HANAMAKI",
        "type": "Compulsory",
        "name1": "ハナマキ"
      },
      "geometry": {
        "type": "Point",
        "coordinates": [
          141.1336,
          39.4333
        ]
      }
    },
    {
      "type": "Feature",
      "properties": {
        "id": "HARKI",
        "type": "Compulsory",
        "name1": "ハーキィ"
      },
      "geometry": {
        "type": "Point",
        "coordinates": [
          159.6856,
          49.3564
        ]
      }
    },
    {
      "type": "Feature",
      "properties": {
        "id": "HACHA",
        "type": "Non-Compulsory",
        "name1": "ハチャ"
      },
      "geometry": {
        "type": "Point",
        "coordinates": [
          129.0142,
          28.1567
        ]
      }
    },
    {
      "type": "Feature",
      "properties": {
        "id": "HACHI",
        "type": "Non-Compulsory",
        "name1": "ハチ"
      },
      "geometry": {
        "type": "Point",
        "coordinates": [
          136.6825,
          35.7844
        ]
      }
    },
    {
      "type": "Feature",
      "properties": {
        "id": "HAGAR",
        "type": "Non-Compulsory",
        "name1": "ハガー"
      },
      "geometry": {
        "type": "Point",
        "coordinates": [
          140.0397,
          36.5811
        ]
      }
    },
    {
      "type": "Feature",
      "properties": {
        "id": "HAGEN",
        "type": "Non-Compulsory",
        "name1": "ハーゲン"
      },
      "geometry": {
        "type": "Point",
        "coordinates": [
          144.6594,
          43.5019
        ]
      }
    },
    {
      "type": "Feature",
      "properties": {
        "id": "HAILY",
        "type": "Non-Compulsory",
        "name1": "ヘイリー"
      },
      "geometry": {
        "type": "Point",
        "coordinates": [
          139.2964,
          36.2644
        ]
      }
    },
    {
      "type": "Feature",
      "properties": {
        "id": "HAKBA",
        "type": "Non-Compulsory",
        "name1": "ハクバ"
      },
      "geometry": {
        "type": "Point",
        "coordinates": [
          137.8847,
          37.26
        ]
      }
    },
    {
      "type": "Feature",
      "properties": {
        "id": "HALHI",
        "type": "Non-Compulsory",
        "name1": "ハルヒ"
      },
      "geometry": {
        "type": "Point",
        "coordinates": [
          139.4111,
          35.6281
        ]
      }
    },
    {
      "type": "Feature",
      "properties": {
        "id": "HALKI",
        "type": "Non-Compulsory",
        "name1": "ハルキ"
      },
      "geometry": {
        "type": "Point",
        "coordinates": [
          137.0403,
          37.3231
        ]
      }
    },
    {
      "type": "Feature",
      "properties": {
        "id": "HALMA",
        "type": "Non-Compulsory",
        "name1": "ハルマ"
      },
      "geometry": {
        "type": "Point",
        "coordinates": [
          130.7111,
          25.8931
        ]
      }
    },
    {
      "type": "Feature",
      "properties": {
        "id": "HALON",
        "type": "Non-Compulsory",
        "name1": "ハロン"
      },
      "geometry": {
        "type": "Point",
        "coordinates": [
          134.9972,
          33.2489
        ]
      }
    },
    {
      "type": "Feature",
      "properties": {
        "id": "HAMNA",
        "type": "Non-Compulsory",
        "name1": "ハムナ"
      },
      "geometry": {
        "type": "Point",
        "coordinates": [
          137.9461,
          34.5603
        ]
      }
    },
    {
      "type": "Feature",
      "properties": {
        "id": "HANKA",
        "type": "Non-Compulsory",
        "name1": "ハンカ"
      },
      "geometry": {
        "type": "Point",
        "coordinates": [
          140.5614,
          39.0183
        ]
      }
    },
    {
      "type": "Feature",
      "properties": {
        "id": "HAPPO",
        "type": "Non-Compulsory",
        "name1": "ハッポー"
      },
      "geometry": {
        "type": "Point",
        "coordinates": [
          137.8892,
          37.1014
        ]
      }
    },
    {
      "type": "Feature",
      "properties": {
        "id": "HARIO",
        "type": "Non-Compulsory",
        "name1": "ハリオ"
      },
      "geometry": {
        "type": "Point",
        "coordinates": [
          129.8367,
          33.0053
        ]
      }
    },
    {
      "type": "Feature",
      "properties": {
        "id": "HARKY",
        "type": "Non-Compulsory",
        "name1": "ハーキー"
      },
      "geometry": {
        "type": "Point",
        "coordinates": [
          135.2967,
          34.4894
        ]
      }
    },
    {
      "type": "Feature",
      "properties": {
        "id": "HASMA",
        "type": "Non-Compulsory",
        "name1": "ハスマ"
      },
      "geometry": {
        "type": "Point",
        "coordinates": [
          129.6542,
          34.0108
        ]
      }
    },
    {
      "type": "Feature",
      "properties": {
        "id": "HATAR",
        "type": "Non-Compulsory",
        "name1": "ハター"
      },
      "geometry": {
        "type": "Point",
        "coordinates": [
          139.6067,
          36.3383
        ]
      }
    },
    {
      "type": "Feature",
      "properties": {
        "id": "HATCH",
        "type": "Non-Compulsory",
        "name1": "ハッチ"
      },
      "geometry": {
        "type": "Point",
        "coordinates": [
          135.0467,
          34.3453
        ]
      }
    },
    {
      "type": "Feature",
      "properties": {
        "id": "HATRI",
        "type": "Non-Compulsory",
        "name1": "ハトリ"
      },
      "geometry": {
        "type": "Point",
        "coordinates": [
          140.1553,
          37.3831
        ]
      }
    },
    {
      "type": "Feature",
      "properties": {
        "id": "HATSU",
        "type": "Non-Compulsory",
        "name1": "ハツ"
      },
      "geometry": {
        "type": "Point",
        "coordinates": [
          139.4981,
          34.9767
        ]
      }
    },
    {
      "type": "Feature",
      "properties": {
        "id": "HAWKS",
        "type": "Non-Compulsory",
        "name1": "ホークス"
      },
      "geometry": {
        "type": "Point",
        "coordinates": [
          130.625,
          33.33
        ]
      }
    },
    {
      "type": "Feature",
      "properties": {
        "id": "HAYAH",
        "type": "Non-Compulsory",
        "name1": "ハヤ"
      },
      "geometry": {
        "type": "Point",
        "coordinates": [
          135.3181,
          33.7272
        ]
      }
    },
    {
      "type": "Feature",
      "properties": {
        "id": "HAZEL",
        "type": "Non-Compulsory",
        "name1": "ハゼル"
      },
      "geometry": {
        "type": "Point",
        "coordinates": [
          129.3894,
          34.235
        ]
      }
    },
    {
      "type": "Feature",
      "properties": {
        "id": "HEIGU",
        "type": "Non-Compulsory",
        "name1": "ヘイグ"
      },
      "geometry": {
        "type": "Point",
        "coordinates": [
          132.0744,
          33.6131
        ]
      }
    },
    {
      "type": "Feature",
      "properties": {
        "id": "HEIWA",
        "type": "Non-Compulsory",
        "name1": "ヘイワ"
      },
      "geometry": {
        "type": "Point",
        "coordinates": [
          130.8083,
          34.03
        ]
      }
    },
    {
      "type": "Feature",
      "properties": {
        "id": "HERAI",
        "type": "Non-Compulsory",
        "name1": "ヘライ"
      },
      "geometry": {
        "type": "Point",
        "coordinates": [
          136.3289,
          36.3394
        ]
      }
    },
    {
      "type": "Feature",
      "properties": {
        "id": "HERON",
        "type": "Non-Compulsory",
        "name1": "ヘロン"
      },
      "geometry": {
        "type": "Point",
        "coordinates": [
          140.5989,
          37.5322
        ]
      }
    },
    {
      "type": "Feature",
      "properties": {
        "id": "HIBAR",
        "type": "Non-Compulsory",
        "name1": "ヒバー"
      },
      "geometry": {
        "type": "Point",
        "coordinates": [
          140.7506,
          41.1106
        ]
      }
    },
    {
      "type": "Feature",
      "properties": {
        "id": "HIDEK",
        "type": "Non-Compulsory",
        "name1": "ヒデク"
      },
      "geometry": {
        "type": "Point",
        "coordinates": [
          132.7506,
          28.3642
        ]
      }
    },
    {
      "type": "Feature",
      "properties": {
        "id": "HIGMA",
        "type": "Non-Compulsory",
        "name1": "ヒグマ"
      },
      "geometry": {
        "type": "Point",
        "coordinates": [
          141.6581,
          45.3653
        ]
      }
    },
    {
      "type": "Feature",
      "properties": {
        "id": "HIGOH",
        "type": "Non-Compulsory",
        "name1": "ヒゴー"
      },
      "geometry": {
        "type": "Point",
        "coordinates": [
          130.8961,
          32.1958
        ]
      }
    },
    {
      "type": "Feature",
      "properties": {
        "id": "HIKNE",
        "type": "Non-Compulsory",
        "name1": "ヒコネ"
      },
      "geometry": {
        "type": "Point",
        "coordinates": [
          136.1769,
          35.2375
        ]
      }
    },
    {
      "type": "Feature",
      "properties": {
        "id": "HIMEH",
        "type": "Non-Compulsory",
        "name1": "ヒメ"
      },
      "geometry": {
        "type": "Point",
        "coordinates": [
          131.6142,
          33.7375
        ]
      }
    },
    {
      "type": "Feature",
      "properties": {
        "id": "HINAG",
        "type": "Non-Compulsory",
        "name1": "ヒナグ"
      },
      "geometry": {
        "type": "Point",
        "coordinates": [
          130.515,
          32.395
        ]
      }
    },
    {
      "type": "Feature",
      "properties": {
        "id": "HINAI",
        "type": "Non-Compulsory",
        "name1": "ヒナイ"
      },
      "geometry": {
        "type": "Point",
        "coordinates": [
          140.6383,
          40.2917
        ]
      }
    },
    {
      "type": "Feature",
      "properties": {
        "id": "HINOK",
        "type": "Non-Compulsory",
        "name1": "ヒノック"
      },
      "geometry": {
        "type": "Point",
        "coordinates": [
          129.7697,
          33.3378
        ]
      }
    },
    {
      "type": "Feature",
      "properties": {
        "id": "HIOTI",
        "type": "Non-Compulsory",
        "name1": "ヒオチ"
      },
      "geometry": {
        "type": "Point",
        "coordinates": [
          134.7892,
          34.8689
        ]
      }
    },
    {
      "type": "Feature",
      "properties": {
        "id": "HIRAR",
        "type": "Non-Compulsory",
        "name1": "ヒラー"
      },
      "geometry": {
        "type": "Point",
        "coordinates": [
          125.7581,
          25.0644
        ]
      }
    },
    {
      "type": "Feature",
      "properties": {
        "id": "HIROO",
        "type": "Non-Compulsory",
        "name1": "ヒロオ"
      },
      "geometry": {
        "type": "Point",
        "coordinates": [
          143.5919,
          41.9672
        ]
      }
    },
    {
      "type": "Feature",
      "properties": {
        "id": "HIROS",
        "type": "Non-Compulsory",
        "name1": "ヒロス"
      },
      "geometry": {
        "type": "Point",
        "coordinates": [
          132.2086,
          31.925
        ]
      }
    },
    {
      "type": "Feature",
      "properties": {
        "id": "HISAI",
        "type": "Non-Compulsory",
        "name1": "ヒサイ"
      },
      "geometry": {
        "type": "Point",
        "coordinates": [
          136.4992,
          34.6642
        ]
      }
    },
    {
      "type": "Feature",
      "properties": {
        "id": "HISAK",
        "type": "Non-Compulsory",
        "name1": "ヒサック"
      },
      "geometry": {
        "type": "Point",
        "coordinates": [
          128.9042,
          32.7586
        ]
      }
    },
    {
      "type": "Feature",
      "properties": {
        "id": "HISUI",
        "type": "Non-Compulsory",
        "name1": "ヒスイ"
      },
      "geometry": {
        "type": "Point",
        "coordinates": [
          137.9314,
          37.5928
        ]
      }
    },
    {
      "type": "Feature",
      "properties": {
        "id": "HIZME",
        "type": "Non-Compulsory",
        "name1": "ヒヅメ"
      },
      "geometry": {
        "type": "Point",
        "coordinates": [
          141.1597,
          39.5283
        ]
      }
    },
    {
      "type": "Feature",
      "properties": {
        "id": "HOKKE",
        "type": "Non-Compulsory",
        "name1": "ホッケ"
      },
      "geometry": {
        "type": "Point",
        "coordinates": [
          137.4417,
          40.0028
        ]
      }
    },
    {
      "type": "Feature",
      "properties": {
        "id": "HOKTA",
        "type": "Non-Compulsory",
        "name1": "ホコタ"
      },
      "geometry": {
        "type": "Point",
        "coordinates": [
          140.9106,
          36.3917
        ]
      }
    },
    {
      "type": "Feature",
      "properties": {
        "id": "HOLNI",
        "type": "Non-Compulsory",
        "name1": "ホルニ"
      },
      "geometry": {
        "type": "Point",
        "coordinates": [
          139.3061,
          34.7219
        ]
      }
    },
    {
      "type": "Feature",
      "properties": {
        "id": "HONDO",
        "type": "Non-Compulsory",
        "name1": "ホンド"
      },
      "geometry": {
        "type": "Point",
        "coordinates": [
          130.1847,
          32.4219
        ]
      }
    },
    {
      "type": "Feature",
      "properties": {
        "id": "HOONMA",
        "type": "Non-Compulsory",
        "name1": "ホンマ"
      },
      "geometry": {
        "type": "Point",
        "coordinates": [
          132.7847,
          35.5717
        ]
      }
    },
    {
      "type": "Feature",
      "properties": {
        "id": "HOSTA",
        "type": "Non-Compulsory",
        "name1": "ホスタ"
      },
      "geometry": {
        "type": "Point",
        "coordinates": [
          135.1331,
          34.3883
        ]
      }
    },
    {
      "type": "Feature",
      "properties": {
        "id": "HOUBA",
        "type": "Non-Compulsory",
        "name1": "ホウバ"
      },
      "geometry": {
        "type": "Point",
        "coordinates": [
          137.2303,
          35.7892
        ]
      }
    },